,Name der Klinik,Ort,Straße und Hausnummer,PLZ,Geburten gesamt 2023,Anzahl Kaiserschnitte 2023,Kaiserschnitt % 2023,IK,Standortnummer,Latitude,Longitude
0,DIAKO Klinikum,Flensburg,Knuthstr. 1,24939,1505,515,34,260100023,773287000,54.7901483,9.4253104
1,Johanniter-Krankenhaus Geesthacht GmbH,Geesthacht,Am Runden Berge 3,21502,659,145,22,260100432,772342000,53.4315254,10.3858089
2,"Klinikum Nordfriesland gGmbH, Klinik Husum",Husum,Erichsenweg 16,25813,649,207,32,260100476,772465000,54.4833008,9.0502002
3,AMEOS Krankenhausgesellschaft mbH - Klinikum Eutin,Eutin,Hospitalstraße 22,23701,1045,334,32,260100626,773006000,54.1331514,10.6019612
4,Regio Kliniken GmbH - Klinikum Pinneberg,Pinneberg,Fahltskamp 74,25421,1083,343,32,260100739,772624000,53.654252,9.8118103
5,Schön Klinik Rendsburg,Rendsburg,Lilienstr. 20-28,24768,881,335,38,260100875,773201000,54.2972385,9.6578833
6,HELIOS Klinik Schleswig GmbH,Schleswig,St. Jürgener Straße 1-3,24837,1107,371,34,260100911,773094000,54.5250901,9.5658283
7,SEGEBERGER KLINIKEN GMBH-Standort Bad Segeberg,Bad Segeberg,Klosterkamp 1,23795,688,206,30,260101126,771942000,53.9418613,10.3076794
8,Klinikum Itzehoe,Itzehoe,Robert-Koch-Str. 2,25524,1705,637,37,260101137,772665000,53.9417141,9.5030113
9,Krankenhaus Reinbek St. Adolf-Stift GmbH,Reinbek,Hamburger Straße 41,21465,627,220,35,260101193,772660000,53.5097359,10.2406578
10,FEK - Friedrich-Ebert-Krankenhaus Neumünster GmbH,Neumünster,Friesenstraße 11,24534,987,244,25,260101488,772073000,54.0643392,9.9918004
11,Westküstenklinikum Heide,Heide,Esmarchstraße 50,25746,1043,436,42,260101865,771042000,54.1998975,9.0776793
12,"UNIVERSITÄTSKLINIKUM Schleswig-Holstein, Campus Lübeck",Lübeck,Ratzeburger Allee 160,23538,2225,761,34,260102343,773447000,53.8387592,10.7078632
13,"UNIVERSITÄTSKLINIKUM Schleswig-Holstein, Campus Kiel",Kiel,Arnold-Heller-Straße 3,24105,1850,611,33,260102343,773448000,54.328446,10.1448833
14,Städtisches Krankenhaus Kiel GmbH,Kiel,Chemnitzstr. 33,24116,1656,469,28,260102434,772314000,54.3228203,10.1163371
15,Universitätsklinikum Hamburg-Eppendorf,Hamburg,Martinistraße 52,20246,2805,912,33,260200013,773675000,53.5909051,9.9753758
16,Asklepios Klinik Barmbek,Hamburg,Rübenkamp 220,22307,2904,1216,42,260200035,772584000,53.6062742,10.0364792
17,Asklepios Klinik Altona,Hamburg,Paul-Ehrlich-Straße 1,22763,3131,1280,41,260200068,773229000,53.5546206,9.8988903
18,Asklepios Klinik Wandsbek,Hamburg,Alphonsstraße 14,22043,928,370,40,260200104,772924000,53.5699009,10.0880663
19,Albertinen-Krankenhaus / Albertinen-Haus gemeinnützige GmbH,Hamburg,Süntelstraße 11,22457,2466,749,30,260200171,773271000,53.630568,9.9059997
20,Evangelisches Amalie Sieveking Krankenhaus,Hamburg,Haselkamp 33,22359,1127,243,22,260200206,772845000,53.6411202,10.1518478
21,Helios Mariahilf Klinik Hamburg,Hamburg,Stader Straße 203 ,21075,1553,472,30,260200386,773111000,53.4705307,9.9409238
22,Kath. Marienkrankenhaus gGmbH,Hamburg,Alfredstraße 9,22087,3150,1381,44,260200400,772533000,53.559033,10.0307399
23,Asklepios Klinik Nord - Heidberg,Hamburg,Tangstedter Landstraße 400,22417,1847,681,37,260200865,773463000,53.6741411,10.0301284
24,AGAPLESION BETHESDA KRANKENHAUS BERGEDORF GgmbH,Hamburg,Glindersweg 80,21029,595,219,37,260200901,772680000,53.4857786,10.2360022
25,AGAPLESION DIAKONIEKLINIKUM HAMBURG,Hamburg,Hohe Weide 17,20259,1267,431,34,260201194,772836000,53.5717926,9.965901
26,AGAPLESION EV. KLINIKUM SCHAUMBURG gGmbH,Obernkirchen,Zum Schaumburger Klinikum 1,31683,683,202,30,260300229,771343000,52.2639141,9.1053674
27,Delme-Klinikum Delmenhorst GmbH,Delmenhorst,Wildeshauser Straße 92,27753,824,249,30,260300332,771245000,53.0444917,8.5934208
28,Krankenhaus Marienstift,Braunschweig,Helmstedter Str. 35,38102,927,255,28,260310221,772897000,52.2586577,10.5458152
29,HELIOS Klinikum Gifhorn GmbH,Gifhorn,Campus 6,38518,1141,270,24,260310367,772608000,52.4971131,10.5482638
30,Universitätsmedizin Göttingen,Göttingen,Robert-Koch-Straße 40,37075,1166,476,41,260310378,772918000,51.5508193,9.9428282
31,Asklepios Harzklinik Goslar,Goslar,Kösliner Straße 12,38642,389,131,34,260310469,773543000,51.9281779,10.4425161
32,Helios St. Marienberg Klinik Helmstedt GmbH,Helmstedt,Conringstraße 26,38350,429,154,36,260310539,772882000,52.2318762,10.9993091
33,HELIOS Albert-Schweitzer-Klinik Northeim [NOM],Northeim,Albert-Schweitzer-Weg  1 ,37154,354,120,34,260310595,772891000,51.7298077,9.9788643
34,Helios Klinik Herzberg/Osterode,Herzberg am Harz,Dr.-Frössel-Allee 1,37412,464,93,20,260310619,771053000,51.6693949,10.343182
35,Helios Klinikum Salzgitter GmbH,Salzgitter,Kattowitzer Str. 191,38226,820,216,26,260310686,772993000,52.1547473,10.3189944
36,Städtisches Klinikum Wolfenbüttel gGmbH,Wolfenbüttel,Alter Weg 80,38302,709,221,31,260310744,771528000,52.179908,10.5336512
37,Klinikum Wolfsburg,Wolfsburg,Sauerbruchstraße 7,38440,1643,611,37,260310766,771722000,52.4136733,10.7685967
38,Evangelisches Krankenhaus Göttingen-Weende gGmbH - Krankenhaus Neu-Mariahilf,Göttingen,Waldweg 9,37073,499,166,33,260311051,772685000,51.5416674,9.9425812
39,AGAPLESION KRANKENHAUS NEU BETHLEHEM gGmbH,Göttingen,Humboldtallee 8,37073,998,328,33,260311302,772116000,51.5407629,9.9431197
40,Gesundheitseinrichtungen Hameln-Pyrmont GmbH - Sana Klinikum Hameln-Pyrmont,Hameln,Saint-Maur-Platz 1,31785,1171,380,32,260320336,771624000,52.1075395,9.3515814
41,DIAKOVERE Henriettenstift,Hannover,Schwemannstraße 17,30559,2368,667,28,260320520,773198000,52.3632727,9.8275698
42,DIAKOVERE Friederikenstift ,Hannover,Humboldtstraße 5,30169,1214,225,19,260320531,773199000,52.3714202,9.724387
43,Medizinische Hochschule Hannover,Hannover,Carl-Neuberg-Straße 1,30625,2415,775,32,260320597,771519000,52.3842111,9.802795
44,Vinzenzkrankenhaus Hannover GmbH,Hannover,Lange-Feld-Strasse 31,30559,1364,237,17,260320600,771767000,52.3585754,9.814758
45,St. Bernward Krankenhaus,Hildesheim,Treibestr. 9,31134,1573,574,36,260320622,772333000,52.1471581,9.9474414
46,Helios Klinikum Hildesheim GmbH,Hildesheim,Senator-Braun-Allee 33,31135,1496,536,36,260320633,772733000,52.1513519,9.9766887
47,Helios Kliniken Mittelweser GmbH,Nienburg,Ziegelkampstraße 39,31582,482,151,31,260321304,773542000,52.6357175,9.224454
48,KRH Klinikum Robert Koch Gehrden,Gehrden,Von-Reden-Straße 1,30989,433,102,24,260321451,772731000,52.30439,9.5984899
49,KRH Klinikum Großburgwedel,Burgwedel,Fuhrberger Straße 8,30938,320,125,39,260321495,772488000,52.4963561,9.861977
50,KRH Klinikum Neustadt am Rübenberge,Neustadt am Rübenberge,Lindenstraße  75,31535,1024,301,29,260321510,772823000,52.4936335,9.4663147
51,OsteMed Klinik Bremervörde,Bremervörde,Gnarrenburger Straße 117,27432,327,94,29,260330098,773364000,53.4713845,9.1356565
52,Krankenhaus Buchholz,Buchholz in der Nordheide,Steinbecker Straße 44,21244,784,228,29,260330112,772558000,53.3332728,9.8716353
53,Elbe Klinikum Buxtehude,Buxtehude,Am Krankenhaus 1,21614,786,191,24,260330123,771497000,53.4618394,9.6759532
54,ALLGEMEINES KRANKENHAUS CELLE,Celle,Siemensplatz 4,29223,1498,459,31,260330134,772671000,52.62889,10.0862561
55,Helios Klinik Cuxhaven GmbH,Cuxhaven,Altenwalder Chaussee 10,27474,535,204,38,260330167,772803000,53.8527502,8.6927855
56,Elbe-Jeetzel-Klinik Dannenberg,Dannenberg,Hermann-Löns-Straße 2,29451,242,54,22,260330190,771160000,53.082869,11.0795617
57,Heidekreis-Klinikum GmbH Krankenhaus Walsrode,Walsrode,Robert-Koch-Straße  4,29664,970,315,32,260330203,773225000,52.8591776,9.5869676
58,Städtisches Klinikum Lüneburg gemeinnützige GmbH,Lüneburg,Bögelstraße 1,21339,1784,686,38,260330361,772578000,53.2402219,10.3958656
59,Kreiskrankenhaus Osterholz,Osterholz-Scharmbeck,Am Krankenhaus 4,27711,447,131,29,260330394,771364000,53.2331173,8.7936612
60,AGAPLESION DIAKONIEKLINIKUM ROTENBURG gemeinnützige GmbH,Rotenburg,Elise-Averdieck-Str. 17,27356,1002,365,36,260330452,773303000,53.10522,9.412896
61,Elbe Klinikum Stade,Stade,Bremervörder Straße 111,21682,1164,423,36,260330500,771503000,53.5962617,9.4418748
62,"Aller-Weser-Klinik gGmbH, Krankenhaus Verden",Verden,Eitzer Straße 20,27283,622,169,27,260330566,773344000,52.9140237,9.2319378
63,Krankenhaus Winsen ( Luhe ),Winsen,Friedrich-Lichtenauer-Allee 1,21423,574,193,34,260330599,772482000,53.3505593,10.2001667
64,Helios Klinikum Uelzen GmbH,Uelzen,Hagenskamp 34,29525,523,170,33,260330793,771200000,52.9719771,10.5322858
65,Niels-Stensen-Kliniken Marienhospital Ankum-Bersenbrück GmbH,Ankum,Lingener Straße 11,49577,343,87,25,260340012,771557000,52.5404711,7.8742164
66,"Ubbo-Emmius-Klinik gGmbH, Klinik Aurich",Aurich,Wallinghausener Str. 8 - 12,26603,1247,443,36,260340034,772239000,53.468142,7.4986632
67,Krankenhaus St. Elisabeth gGmbH,Damme,Lindenstraße 3-7,49401,529,163,31,260340272,772953000,52.5209349,8.1942571
68,Klinikum Leer gGmbH,Leer,Augustenstraße 35 - 37,26789,1310,504,38,260340535,772479000,53.2358734,7.4582287
69,Borromäus Hospital Leer gGmbH,Leer,Kirchstraße 61 - 67,26789,872,213,24,260340546,773204000,53.2285183,7.444915
70,Bonifatius Hospital Lingen,Lingen,Wilhelmstraße 13,49808,1144,458,40,260340557,771658000,52.5245781,7.3153083
71,St. Franziskus-Hospital,Lohne,Franziskusstr. 6,49393,376,131,35,260340579,772798000,52.6646184,8.2408797
72,Niels-Stensen-Klinikum Christliches Klinikum Melle,Melle,Engelgarten 3,49324,605,182,30,260340591,771608000,52.1986437,8.3360576
73,Krankenhaus Ludmillenstift,Meppen,Ludmillenstraße 4-6,49716,905,361,40,260340615,773405000,52.6887165,7.2929998
74,Euregio-Klinik Albert-Schweitzer-Straße GmbH,Nordhorn,Albert-Schweitzer-Str. 10,48527,992,332,33,260340739,771842000,52.4430328,7.0659723
75,Klinikum Oldenburg AöR,Oldenburg,Rahel-Straus-Str. 10,26133,1843,754,41,260340740,771936000,53.111788,8.2171526
76,Evangelisches Krankenhaus Oldenburg,Oldenburg,Steinweg 13 - 17,26122,1496,424,28,260340784,772066000,53.1425951,8.2048916
77,Niels-Stensen-Kliniken Marienhospital Osnabrück,Osnabrück,Bischofsstraße 1,49074,2162,873,40,260340831,771583000,52.2702299,8.0533997
78,Hümmling Hospital Sögel gGmbH,Sögel,Mühlenstraße 17,49751,536,224,42,260340933,772177000,52.8435359,7.5195172
79,Friesland Kliniken gGmbH St. Johannes-Hospital,Varel,Bleichenpfad 9,26316,758,269,35,260340977,771998000,53.3919425,8.13958
80,St. Marienhospital Vechta,Vechta,Marienstraße 6-8,49377,1676,701,42,260340988,772818000,52.725453,8.2871627
81,Krankenhaus Johanneum,Wildeshausen,Feldstrasse 1,27793,553,170,31,260341057,771716000,52.8937444,8.4324674
82,Klinikum Wilhelmshaven gGmbH ,Wilhelmshaven,Friedrich-Paffrath-Straße 100,26389,811,248,31,260341080,773203000,53.5457453,8.0828192
83,St. Josefs-Hospital Cloppenburg,Cloppenburg,Krankenhausstraße 13,49661,578,153,26,260341182,772295000,52.8472582,8.0403668
84,Niels-Stensen-Kliniken Franziskus-Hospital Harderberg,Georgsmarienhütte,Alte Rothenfelder Straße 23,49124,733,230,31,260341251,771558000,52.2377674,8.0723288
85,Ammerland-Klinik Westerstede,Westerstede,Lange Straße 38,26655,747,260,35,260341444,772466000,53.2574925,7.9185221
86,Marien Hospital Papenburg Aschendorf gGmbH Standort Papenburg,Papenburg,Hauptkanal rechts 74 - 75,26871,556,196,35,260341616,771524000,53.0835782,7.3901056
87,Klinikum Bremen-Mitte,Bremen,St.-Jürgen-Straße 1,28205,2300,799,35,260400015,772995000,53.0745692,8.840024
88,Klinikum Bremen-Nord,Bremen,Hammersbecker Straße 83,28755,1826,636,35,260400037,772828000,53.1839621,8.6228308
89,DIAKO Ev. Diakonie-Krankenhaus gemeinnützige GmbH,Bremen,Gröpelinger Heerstr.  406,28239,762,246,32,260400071,771615000,53.1258854,8.7453869
90,Krankenhaus St. Joseph-Stift Bremen GmbH,Bremen,Schwachhauser Heerstraße 54,28209,1771,539,30,260400082,772438000,53.0832424,8.8350409
91,Klinikum Bremerhaven-Reinkenheide gGmbH,Bremerhaven,Postbrookstraße 103,27574,1862,570,31,260400184,771101000,53.5377643,8.6367596
92,AGAPLESION Klinikum Hagen gem. GmbH,Hagen,Grünstr. 35,58095,882,350,40,260500481,772088000,51.3540265,7.4660777
93,Herz-Jesu-Krankenhaus Hiltrup GmbH,Münster,Westfalenstr. 109,48165,537,166,31,260501778,771527000,51.908847,7.6344033
94,Universitätsklinikum Düsseldorf,Düsseldorf,Moorenstraße 5,40225,1876,849,45,260510018,773410000,51.1959679,6.7898208
95,"Sana Kliniken Düsseldorf, Standort Benrath",Düsseldorf,Urdenbacher Allee 83,40593,482,165,34,260510029,772276000,51.1532061,6.8710534
96,Marien Hospital Düsseldorf GmbH,Düsseldorf,Rochusstr. 2,40479,874,130,15,260510096,772246000,51.2359614,6.7855568
97,Florence-Nightingale-Krankenhaus,Düsseldorf,Kreuzbergstraße 79,40489,3250,826,25,260510121,772846000,51.3003594,6.7494709
98,Evangelisches Krankenhaus Düsseldorf,Düsseldorf,Kirchfeldstr. 40,40217,1627,623,38,260510132,773140000,51.2130908,6.7730653
99,Wedau Kliniken,Duisburg,Zu den Rehwiesen 9-11,47055,1392,560,40,260510212,773003000,51.396615,6.7838729
100,Helios St. Johannes Klinik,Duisburg,Dieselstr. 185,47166,883,281,32,260510256,771548000,51.490144,6.7606062
101,Evangelisches Krankenhaus Bethesda zu Duisburg,Duisburg,Heerstraße 219,47053,791,214,27,260510347,773551000,51.4172328,6.7614273
102,Universitätsklinikum Essen (AöR),Essen,Hufelandstr. 55,45147,1249,574,46,260510381,771967000,51.4347062,6.9880092
103,Elisabeth-Krankenhaus Essen,Essen,Klara-Kopp-Weg 1,45138,2858,977,34,260510461,771980000,51.445437,7.0328223
104,Helios Klinikum Krefeld,Krefeld,Lutherplatz 40,47805,1710,568,33,260510575,772782000,51.3209451,6.5660868
105,Städtische Kliniken Mönchengladbach GmbH,Mönchengladbach,Hubertusstraße 100,41239,3306,950,29,260510644,772941000,51.1580847,6.4199089
106,Evangelisches Krankenhaus Mülheim an der Ruhr GmbH,Mülheim an der Ruhr,Wertgasse 30,45468,774,260,34,260510746,771889000,51.4245961,6.8824168
107,AMEOS Klinikum St. Clemens Oberhausen,Oberhausen,Wilhelmstraße 34,46145,853,282,33,260510791,772080000,51.5175112,6.8448097
108,Evangelisches Krankenhaus Oberhausen GmbH,Oberhausen,Virchowstraße 20,46047,2108,734,35,260510815,771679000,51.4744239,6.8662749
109,Sana-Klinikum Remscheid GmbH,Remscheid,Burger Straße 211,42859,1085,371,34,260510826,771259000,51.161546,7.1867887
110,QB Solingen 2023 ,Solingen,Gotenstraße 1,42653,1127,432,38,260510871,771176000,51.1854782,7.0694225
111,Helios Universitätsklinikum Wuppertal GmbH,Wuppertal,Heusnerstr. 40,42283,1723,592,34,260510906,772691000,51.2752619,7.173906
112,AGAPLESION BETHESDA KRANKENHAUS WUPPERTAL gemeinnützige GmbH,Wuppertal,Hainstraße 35,42109,914,263,29,260510940,772234000,51.268337,7.1304659
113,St.-Clemens-Hospital Geldern,Geldern,Clemensstraße 6,47608,998,348,35,260510984,773026000,51.5280212,6.3273348
114,Katholisches-Karl-Leisner-Klinikum gGmbH  Standort St.-Antonius-Hospital,Kleve,Albersallee 5-7,47533,1146,329,29,260511031,772766000,51.772775,6.1353483
115,St. Martinus Krankenhaus,Langenfeld,Klosterstrasse 32,40764,489,181,37,260511111,771247000,51.1301078,6.9425801
116,Evangelisches Krankenhaus Mettmann GmbH,Mettmann,Gartenstr. 4-8,40822,486,161,33,260511144,771265000,51.2505573,6.969992
117,Rheinland Klinikum Grevenbroich Elisabethkrankenhaus,Grevenbroich,Von-Werth-Straße 5,41515,Datenschutz,Datenschutz,Datenschutz,260511257,771861000,51.0911123,6.5937321
118,Rheinland Klinikum Dormagen,Dormagen,Dr.-Geldmacher-Straße 20,41540,526,159,30,260511257,771862000,51.0729097,6.8087699
119,Johanna-Etienne-Krankenhaus,Neuss,Am Hasenberg 46,41462,748,284,38,260511280,771507000,51.2150197,6.6600658
120,Hospital zum Heiligen Geist Kempen GmbH & Co. KG,Kempen,von-Broichhausen-Allee 1,47906,548,185,34,260511348,773342000,51.3632544,6.4110946
121,Allgemeines Krankenhaus Viersen GmbH,Viersen,Hoserkirchweg 63,41747,922,309,34,260511428,771955000,51.2514473,6.3828462
122,St. Vinzenz Hospital,Dinslaken,Dr.-Otto-Seidel-Straße 31-33,46535,891,258,29,260511462,771827000,51.5600406,6.7274335
123,St. Josef Krankenhaus GmbH Moers - Betriebsstätte St. Josef Krankenhaus Moers,Moers,Asberger Str. 4,47441,825,277,34,260511509,771226000,51.4454023,6.6410419
124,Krankenhaus Bethanien für die Grafschaft Moers,Moers,Bethanienstr. 21,47441,1561,652,42,260511510,772474000,51.4617039,6.6338422
125,Marien-Hospital gGmbH,Wesel,Pastor-Janßen-Straße 2-38,46483,1412,523,37,260511554,772359000,51.6540605,6.6112687
126,"Krankenhaus Neuwerk ""Maria von den Aposteln"" gGmbH",Mönchengladbach,Dünner Straße 214-216,41066,625,166,27,260511770,772425000,51.2249677,6.4705865
127,Rheinland Klinikum Lukaskrankenhaus Neuss,Neuss,Preußenstraße 84,41464,1801,617,34,260511781,772188000,51.1923506,6.6701165
128,Helios Klinikum Niederberg,Velbert,Robert-Koch-Straße 2,42549,809,260,32,260512032,771585000,51.3507986,7.0129852
129,Helios St. Anna Klinik Duisburg,Duisburg,Albertus-Magnus Straße 33,47259,490,185,38,260513282,772651000,51.3648738,6.7551326
130,Uniklinik RWTH Aachen,Aachen,Pauwelsstr. 30,52074,1178,541,46,260530012,771450000,50.7763079,6.0440928
131,Marienhospital Aachen,Aachen,Zeise 4,52066,604,158,26,260530023,771888000,50.762603,6.0953768
132,Luisenhospital Aachen,Aachen,Boxgraben 99,52064,772,238,31,260530056,772078000,50.7676431,6.076747
133,Universitätsklinikum Bonn,Bonn,Venusberg-Campus 1,53127,2538,1075,42,260530103,772247000,50.7007753,7.101282
134,Gemeinschaftskrankenhaus Bonn St. Elisabeth St. Petrus St. Johannes gGmbH,Bonn,Bonner Talweg 4-6,53113,513,189,37,260530114,772222000,50.7283209,7.0984631
135,GFO Kliniken Bonn - Betriebstätte St. Marien-Hospital,Bonn,Robert-Koch-Strasse 1,53115,1982,666,34,260530192,771851000,50.7178205,7.0946458
136,Johanniter GmbH - Johanniter Krankenhaus Bonn,Bonn,Johanniterstr. 3-5,53113,768,271,35,260530205,771938000,50.7126513,7.1319234
137,Universitätsklinikum Köln,Köln,Kerpener Straße 62,50937,2010,1051,52,260530283,773491000,50.9236351,6.9170838
138,Kliniken der Stadt Köln gGmbH - Krankenhaus Holweide,Köln,Neufelder Straße 32,51067,1408,610,43,260530318,772851000,50.96657,7.0561325
139,Cellitinnen-Krankenhaus Heilig Geist,Köln,Graseggerstr. 105,50737,1623,380,23,260530396,772936000,50.9916327,6.9253461
140,Cellitinnen-Severinsklösterchen Krankenhaus der Augustinerinnen,Köln,Jakobstr. 27-31,50678,1872,575,31,260530421,772871000,50.9248385,6.9570677
141,St. Elisabeth-Krankenhaus GmbH,Köln,Werthmannstr. 1,50935,1419,447,32,260530476,772347000,50.9234619,6.8975062
142,Evangelisches Krankenhaus Kalk gGmbH,Köln,Buchforststr. 2,51103,933,248,27,260530498,771183000,50.9412288,7.0093102
143,Evangelisches Klinikum Köln Weyertal GmbH,Köln,Weyertal 76,50931,938,244,26,260530502,771243000,50.9275119,6.9256573
144,Krankenhaus Porz am Rhein gGmbH,Köln,Urbacher Weg 19,51149,1383,478,35,260530524,771240000,50.8924708,7.0510026
145,Klinikum Leverkusen gGmbH,Leverkusen,Am Gesundheitspark 11,51375,2166,885,41,260530579,771766000,51.0323417,7.0320199
146,Eifelklinik St. Brigida GmbH & Co. KG,Simmerath,Kammerbruchstraße 8,52152,344,121,35,260530626,772720000,50.6047202,6.3015319
147,Bethlehem Gesundheitszentrum Stolberg,Stolberg,Steinfeldstraße 5,52222,2270,802,35,260530637,771699000,50.772666,6.2289467
148,Krankenhaus Düren gem. GmbH,Düren,Roonstraße 30,52351,627,226,36,260530660,772534000,50.8081239,6.4978758
149,St. Marien-Hospital gGmbH,Düren-Birkesdorf,Hospitalstr. 44,52353,1805,747,41,260530671,771262000,50.8224091,6.466599
150,GFO Klinik Brühl - Marienhospital,Brühl,Mühlenstrasse 21-25,50321,508,162,32,260530751,771641000,50.8273521,6.9006546
151,St.-Katharinen-Hospital GmbH,Frechen,Kapellenstr. 1-5,50226,326,96,29,260530784,772393000,50.9222305,6.8081989
152,Marien-Hospital,Euskirchen,Gottfried-Disse-Straße 40,53879,597,187,31,260530886,771698000,50.6423738,6.7912555
153,Krankenhaus Schleiden,Schleiden,Am Hähnchen 36,53937,Datenschutz,Datenschutz,Datenschutz,260530900,771847000,50.5333736,6.4869046
154,Krankenhaus Mechernich,Mechernich,St. Elisabethstraße 2-6,53894,992,366,37,260530900,771848000,50.5925382,6.6512632
155,Hermann-Josef-Krankenhaus,Erkelenz,Tenholter Str. 43,41812,854,258,30,260530966,771574000,51.0751406,6.3139125
156,Städtisches Krankenhaus Heinsberg GmbH,Heinsberg,Auf dem Brand 1,52525,654,191,29,260530999,772072000,51.064924,6.0949779
157,Kreiskrankenhaus Gummersbach,Gummersbach,Wilhelm-Breckow-Allee 20,51643,990,382,39,260531046,772125000,51.0154919,7.5674469
158,Vinzenz Pallotti Hospital,Bergisch-Gladbach-Bensberg,Vinzenz-Pallotti-Straße 20,51429,1697,443,26,260531159,771642000,50.961996,7.1755471
159,Evangelisches Krankenhaus Bergisch Gladbach gGmbH,Bergisch Gladbach,Ferrenbergstrasse 24,51465,582,220,38,260531160,773200000,50.9897979,7.1373928
160,GFO Kliniken Troisdorf - St. Johannes Krankenhaus,Troisdorf - Sieglar,Wilhelm-Busch Str. 9,53844,1300,257,20,260531364,772395000,50.7972446,7.1174131
161,GFO Kliniken Troisdorf - St. Josef Hospital,Troisdorf,Hospitalstraße 45,53840,601,135,22,260531364,772396000,50.8176693,7.1594793
162,Helios Klinik Wipperfürth ,Wipperfürth,Alte Kölner Straße 9,51688,528,143,27,260532935,771944000,51.1131661,7.3854849
163,Marienhospital Gelsenkirchen GmbH,Gelsenkirchen,Virchowstr. 122,45886,1577,512,32,260550095,771657000,51.4967408,7.1019635
164,Sankt Marien-Hospital Buer GmbH,Gelsenkirchen,Mühlenstr. 5-9,45894,893,267,30,260550108,771647000,51.5886917,7.046522
165,Universitätsklinikum Münster,Münster,Domagkstr. 5,48149,913,419,46,260550131,772432000,51.9610826,7.5999013
166,Ludgerus-Kliniken Münster GmbH-Standort Clemenshospital,Münster,Düesbergweg 124,48153,1801,515,29,260550142,772873000,51.9324359,7.6142988
167,St. Marien-Krankenhaus Ahaus,Ahaus,Wüllener Straße 101,48683,640,192,30,260550277,771284000,52.0687896,6.9931916
168,St. Agnes-Hospital Bocholt,Bocholt,Barloer Weg 125,46397,1089,324,30,260550277,771286000,51.8556194,6.6270726
169,St. Antonius-Hospital Gronau GmbH,Gronau,Möllenweg 22,48599,511,126,25,260550313,771299000,52.2081007,7.0208889
170,"Christophorus Kliniken Coesfeld – Dülmen – Nottuln, Standort Coesfeld",Coesfeld,Südring 41,48653,2499,697,28,260550460,771191000,51.9437116,7.1707741
171,St. Vincenz-Krankenhaus,Datteln,Rottstraße 11,45711,2314,940,41,260550596,771891000,51.6518156,7.3450931
172,"Stiftungsklinikum PROSELIS gGmbH, Standort Prosper-Hospital",Recklinghausen,Mühlenstraße 27,45659,648,239,37,260550701,772358000,51.6063371,7.1923277
173,Klinikum Rheine,Rheine,Frankenburgstrasse 31,48431,2152,651,30,260550905,773430000,52.2761609,7.4258089
174,St. Franziskus-Hospital Ahlen,Ahlen,Robert-Koch-Straße 55,59227,1168,254,22,260550961,772804000,51.767329,7.884784
175,"Knappschaft Kliniken Vest GmbH, Paracelsus Marl",Marl,Lipper Weg  11,45770,533,186,35,260551165,772472000,51.6620447,7.1241778
176,St. Franziskus-Hospital GmbH Münster,Münster,Hohenzollernring 70,48145,2095,641,31,260551416,772191000,51.9609413,7.649296
177,Marienhospital Bottrop gGmbH,Bottrop,Josef-Albers-Str. 70,46236,1138,383,34,260551757,771988000,51.5344955,6.9180811
178,St. Elisabeth-Krankenhaus Dorsten,Dorsten,Pfarrer-Wilhelm-Schmitz-Straße 1,46282,516,171,33,260551837,772049000,51.6566941,6.9563896
179,"Klinikum Bielefeld gem. GmbH, Standort Halle/Westfalen",Halle,Winnebrockstr. 1,33790,366,146,40,260570022,772829000,52.0546825,8.3547493
180,Klinikum Bielefeld gem. GmbH,Bielefeld,Teutoburger Str. 50,33604,902,321,36,260570022,772831000,52.0147557,8.5431079
181,Evangelisches Klinikum Bethel gGmbH Standort Bethel,Bielefeld,Kantensiek 11,33617,1875,703,37,260570044,773641000,52.0128958,8.5261322
182,Klinik Dr. Hartog,Bielefeld,Kiskerstr. 15,33615,348,152,44,260570088,772065000,52.0231045,8.5213338
183,Klinikum Gütersloh,Gütersloh,Reckenberger Str. 19,33332,725,222,31,260570113,771179000,51.8975084,8.3850577
184,Klinikum Herford AöR,Herford,Schwarzenmoorstraße 70,32049,1199,508,42,260570306,773235000,52.126119,8.7004351
185,St. Ansgar Krankenhaus Höxter,Höxter,Brenkhäuser Str. 71,37671,976,312,32,260570351,773298000,51.7850314,9.3653808
186,Klinikum Lippe Detmold,Detmold,Röntgenstraße 18,32756,1808,530,29,260570486,771184000,51.9412595,8.8798408
187,MKK Krankenhaus Bad Oeynhausen,Bad Oeynhausen,Wielandstraße 28,32545,577,150,26,260570545,772361000,52.1935148,8.7974675
188,Herz- und Diabeteszentrum NRW,Bad Oeynhausen,Georgstrasse  11,32545,Datenschutz,Datenschutz,Datenschutz,260570603,771056000,52.1921357,8.795334
189,Krankenhaus Lübbecke,Lübbecke,Virchowstraße 65,32312,809,195,24,260570681,772139000,52.2960071,8.6035676
190,Johannes Wesling Klinikum,Minden,Hans-Nolte-Str. 1,32429,1832,777,42,260570692,772283000,52.2612461,8.8890891
191,St. Vincenz-Krankenhaus,Paderborn,Am Busdorf 2,33098,2595,638,25,260570874,772673000,51.7185238,8.7591072
192,St. Josefs-Krankenhaus,Salzkotten,Dr.-Krismann-Straße 12,33154,1067,201,19,260570874,772674000,51.6779414,8.6177166
193,Marienhospital Oelde,Oelde,Spellerstraße 16,59302,384,102,27,260571421,772475000,51.8219845,8.1428601
194,Sankt Elisabeth Hospital,Gütersloh,Stadtring Kattenstroth 130,33332,1049,272,26,260571421,772477000,51.8823827,8.3817944
195,Franziskus Hospital Bielefeld,Bielefeld,Kiskerstr. 26,33615,864,271,31,260571421,773289000,52.0226864,8.5227616
196,Mathilden Hospital,Herford,Renntormauer 1-3,32052,573,183,32,260571421,773290000,52.1119389,8.6748631
197,St. Elisabeth-Hospital,Bochum,Bleichstraße 15,44787,1402,561,40,260590071,772745000,51.4826965,7.2201904
198,Augusta-Kranken-Anstalt gGmbH Bochum,Bochum,Bergstraße 26,44791,1496,449,30,260590106,771915000,51.4852967,7.2229971
199,Klinikum Dortmund Mitte,Dortmund,Beurhausstraße 40,44137,2368,1294,55,260590139,773659000,51.5084552,7.4576213
200,Klinikum Dortmund Nord,Dortmund,Münsterstraße 240,44145,Datenschutz,Datenschutz,Datenschutz,260590139,773660000,51.5344549,7.4543456
201,St. Josefs Hospital Dortmund-Hörde,Dortmund,Wilhelm-Schmidt-Str. 4,44263,954,270,28,260590219,772089000,51.4851096,7.5051313
202,St. Rochus-Hospital Castrop-Rauxel (Einrichtung des St. Lukas Klinikums),Castrop-Rauxel,Glückaufstr. 10,44575,709,245,35,260590219,772090000,51.5468383,7.3156511
203,HAMM,Hamm,Werler Straße 110,59063,1424,461,32,260590402,773164000,51.6705744,7.826875
204,"Marien Hospital Herne, Klinikum der Ruhr-Universität Bochum",Herne,Hölkeskampring 40,44625,626,221,35,260590457,772372000,51.5287108,7.2264738
205,St. Anna Hospital Herne,Herne,Hospitalstr. 19,44649,1032,214,21,260590468,772418000,51.537557,7.1590304
206,Gemeinschaftskrankenhaus Herdecke,Herdecke,Gerhard-Kienle-Weg -- 4,58313,1845,668,36,260590572,772009000,51.4116353,7.3999225
207,Helios Klinikum Schwelm,Schwelm,Dr.-Moeller-Straße 15,58332,627,248,40,260590583,771535000,51.2937365,7.3122248
208,Marien Hospital Witten,Witten,Marienplatz 2,58452,2588,1143,44,260590641,772434000,51.4451883,7.3372477
209,Städt. Krankenhaus Maria-Hilf Brilon gGmbH,Brilon,Am Schönschede 1,59929,455,157,35,260590696,773218000,51.3857818,8.5821875
210,"Klinikum Lüdenscheid, Märkische Kliniken GmbH",Lüdenscheid,Paulmannshöher Straße 14,58515,826,350,42,260590969,773051000,51.2077232,7.6622444
211,Katholische Hospitalgesellschaft Südwestfalen gGmbH - St. Martinus-Hospital,Olpe,Hospitalweg 6,57462,705,229,32,260591107,772205000,51.0279527,7.8465098
212,Katholische Hospitalgesellschaft Südwestfalen gGmbH - St. Josefs-Hospital,Lennestadt,Uferstraße 7,57368,485,140,29,260591107,772206000,51.1083091,8.0697058
213,St. Marien-Krankenhaus Siegen ,Siegen,Kampenstraße 51,57072,1135,317,28,260591243,772061000,50.8790848,8.0298395
214,Evangelisches Krankenhaus Lippstadt,Lippstadt,Wiedenbrücker Straße 33,59555,1562,634,41,260591345,771769000,51.6848042,8.3422539
215,KlinikumStadtSoest gGmbH,Soest,Senator-Schwartz-Ring 8,59494,591,213,36,260591389,772657000,51.5650729,8.0778409
216,KLW St. Paulus GmbH  St. Marien Hospital Lünen,Lünen,Altstadtstraße 23,44534,614,233,38,260591506,771395000,51.6188621,7.5153293
217,Marienkrankenhaus Schwerte,Schwerte,Goethestraße 19,58239,782,312,40,260591517,771493000,51.4439056,7.5675557
218,Christliches Klinikum Unna gGmbH,Unna,Obere Husemannstrasse 2,59423,937,344,37,260591539,772252000,51.5369502,7.6847822
219,"Knappschaftskrankenhaus Dortmund, Klinikum Westfalen GmbH",Dortmund,Am Knappschaftskrankenhaus 1,44309,470,146,31,260591619,771108000,51.5200629,7.5320074
220,St. Barbara-Klinik Hamm GmbH,Hamm,Am Heessener Wald 1,59073,505,199,39,260592084,772561000,51.7078282,7.8416243
221,VAMED Klinik Bad Berleburg GmbH,Bad Berleburg,An der Gontardslust  7,57319,222,82,37,260592277,771727000,51.0606658,8.4073489
222,"Katholische Kliniken im Märkischen Kreis - St. Elisabeth Hospital, Bethanien Krankenhaus Iserlohn",Iserlohn,Hochstraße 63,58638,319,133,42,260593030,773277000,51.379666,7.6908294
223,Diakonie Klinikum Jung-Stilling,Siegen,Wichernstraße 40,57074,1857,804,43,260593085,771580000,50.8515103,8.0184
224,St.-Johannes-Hospital Dortmund,Dortmund,Johannesstraße 9-13,44137,1258,473,38,260593096,772099000,51.5104129,7.4574054
225,KLINIKUM HOCHSAUERLAND / Karolinen-Hospital Hüsten,Arnsberg,Stolte Ley 5,59759,1595,341,21,260593600,772597000,51.4260697,7.9996717
226,Klinikum Darmstadt GmbH,Darmstadt,Grafenstraße 9,64283,2585,1006,39,260610019,771807000,49.8745519,8.6466744
227,Alice-Hospital,Darmstadt,Dieburger Straße 31,64287,1317,505,38,260610031,771432000,49.8772641,8.6653032
228,Klinikum Frankfurt Höchst GmbH,Frankfurt am Main,Gotenstraße 6-8,65929,2453,817,33,260610075,773233000,50.1086826,8.5468262
229,Bürgerhospital und Clementine Kinderhospital gGmbH Standort: Bürgerhospital Frankfurt,Frankfurt am Main,Nibelungenallee 37-41,60318,4102,1520,37,260610122,771984000,50.1303682,8.686207
230,Hospital zum Heiligen Geist,Frankfurt am Main,Lange Straße 4 - 6,60311,900,287,32,260610133,771238000,50.1103217,8.6932165
231,DGD Krankenhaus Sachsenhausen gGmbH,Frankfurt,Schulstr. 31,60594,594,212,36,260610177,771347000,50.1063178,8.6836179
232,"Universitätsklinikum Gießen und Marburg, Standort Gießen",Gießen,Rudolf-Buchheim-Straße 8,35392,1907,878,46,260610279,773411000,50.5763998,8.6659184
233,Lahn-Dill-Kliniken GmbH,Wetzlar,Forsthausstraße 1,35578,793,202,25,260610280,771876000,50.5386763,8.5309561
234,St. Josefs Krankenhaus Balserische Stiftung,Gießen,Wilhelmstraße 7,35392,1085,372,34,260610337,772166000,50.5782557,8.6675581
235,Sana Klinikum Offenbach GmbH,Offenbach,Starkenburgring 66,63069,1418,494,35,260610359,772356000,50.0957449,8.7545387
236,Ketteler Krankenhaus,Offenbach,Lichtenplattenweg 85,63071,547,186,34,260610360,771398000,50.0946549,8.7847016
237,Helios Dr. Horst-Schmidt-Kliniken Wiesbaden,Wiesbaden,Ludwig-Erhard-Strasse 100,65199,1722,647,38,260610393,773371000,50.0658506,8.1914707
238,Asklepios Paulinen Klinik Wiesbaden,Wiesbaden,Geisenheimer Straße 10,65197,877,305,35,260610428,773037000,50.0719273,8.2269943
239,St. Josefs-Hospital Wiesbaden GmbH,Wiesbaden,Beethovenstr. 20,65189,1446,450,31,260610439,772176000,50.0764489,8.2544924
240,Kreisklinik Groß-Umstadt,Groß-Umstadt,Krankenhausstr. 11,64823,315,102,32,260610690,772772000,49.8672057,8.9367986
241,Hochtaunus-Kliniken gGmbH - Bad Homburg,Bad Homburg,Zeppelinstraße 20,61352,1262,327,26,260610792,772998000,50.2121193,8.619331
242,Asklepios Klinik Lich GmbH,Lich,Goethestraße 4,35423,816,261,32,260611032,771723000,50.524845,8.8057305
243,St. Vincenz-Krankenhaus Limburg,Limburg,Auf dem Schafsberg -,65549,1219,428,35,260611203,772912000,50.3874898,8.0511327
244,Main-Kinzig-Kliniken Gelnhausen,Gelnhausen,Herzbachweg 14,63571,1519,509,34,260611225,772471000,50.2062544,9.1825422
245,Klinikum Hanau GmbH,Hanau,Leimenstraße 20,63450,1337,496,37,260611236,771648000,50.1334541,8.923525
246,St. Vinzenz-Krankenhaus Hanau gGmbH Haupthaus,Hanau,Am Frankfurter Tor 25,63450,867,225,26,260611258,772141000,50.1352215,8.9121809
247,Kliniken des Main-Taunus-Kreises GmbH,Bad Soden am Taunus,Kronberger Straße 36,65812,954,350,37,260611383,773347000,50.1505305,8.5135951
248,Gesundheitszentrum Odenwaldkreis GmbH,Erbach,Albert-Schweitzer-Str. 10-20,64711,434,138,32,260611511,771569000,49.6516204,9.000656
249,Universitätsklinikum Frankfurt,Frankfurt am Main,Theodor-Stern-Kai 7,60590,1786,776,43,260612124,772858000,50.0952039,8.6611054
250,Klinikum Kassel GmbH,Kassel,Mönchebergstraße 41-43,34125,2407,741,31,260620011,772565000,51.3273936,9.5101244
251,Klinikum Fulda - Hauptstandort,Fulda,Pacelliallee 4,36043,1738,694,40,260620157,772145000,50.5470787,9.7057356
252,Herz-Jesu-Krankenhaus gGmbH,Fulda,Buttlarstraße 74,36039,887,165,19,260620180,771197000,50.5632583,9.6733836
253,Klinikum Bad Hersfeld GmbH,Bad Hersfeld,Seilerweg 29,36251,835,284,34,260620271,771129000,50.8759431,9.7134361
254,"Universitätsklinikum Gießen und Marburg GmbH, Standort Marburg",Marburg,Baldingerstraße 01,35043,1939,768,40,260620431,773132000,50.8161245,8.8060536
255,"Asklepios Schwalm-Eder-Kliniken GmbH, Klinikum Schwalmstadt",Schwalmstadt,Krankenhausstraße 27,34613,501,181,36,260620556,773531000,50.922049,9.2562986
256,Hospital zum Heiligen Geist gGmbH,Fritzlar,Am Hospital 6,34560,735,149,20,260620589,772956000,51.1324614,9.2788846
257,Kreiskrankenhaus Frankenberg,Frankenberg,Forststraße 9,35066,549,162,30,260620658,772704000,51.0619825,8.7918885
258,Stadtkrankenhaus Korbach gGmbH,Korbach,Enser Str. 19,34497,280,80,29,260620670,772662000,51.2674541,8.8710857
259,Kreiskrankenhaus Bergstraße - eine Einrichtung des Universitätsklinikums Heidelberg,Heppenheim,Viernheimer Straße 2,64646,798,216,27,260640048,772028000,49.6281904,8.625264
260,GPR Klinikum,Rüsselsheim am Main,August-Bebel-Straße 59,65428,1038,352,34,260640480,771061000,49.9827132,8.4251458
261,St. Elisabethen-Krankenhaus,Frankfurt am Main,Ginnheimer Straße 3,60487,1338,517,39,260640641,773559000,50.1264302,8.6388472
262,Asklepios Klinik Langen,Langen,Röntgenstraße 20,63225,748,209,28,260640732,772654000,49.9985187,8.6845424
263,Hochwaldkrankenhaus Bad Nauheim,Bad Nauheim,Chaumontplatz 1,61231,835,218,26,260641722,771758000,50.3571253,8.7291555
264,Helios St. Elisabeth Klinik Hünfeld,Hünfeld,Schillerstraße 22,36088,192,79,41,260660258,772593000,50.6631439,9.7672048
265,AGAPLESION DIAKONIE KLINIKEN KASSEL,Kassel,Herkulesstraße 34,34119,1290,429,33,260660839,772094000,51.3142665,9.4627093
266,Kreisklinik Wolfhagen,Wolfhagen,Am Kleinen Ofenberg 1,34466,Datenschutz,Datenschutz,Datenschutz,260660862,772507000,51.3203834,9.1898839
267,Kreisklinik Hofgeismar,Hofgeismar,Liebenauer Straße 1,34369,282,106,38,260660862,772508000,51.496004,9.3691837
268,Klinikum Werra Meißner GmbH / Standort Eschwege,Eschwege,Elsa-Brändström-Straße 1,37269,344,86,25,260660873,772876000,51.1827575,10.0503338
269,Gemeinschaftsklinikum Mittelrhein gGmbH / Kemperhof,Koblenz,Koblenzer Straße 115-155,56073,1509,542,36,260700109,773518000,50.3556095,7.5646017
270,"Gemeinschaftsklinikum Mittelrhein, St. Elisabeth Mayen",Mayen,Siegfriedstr. 20+22,56727,726,283,39,260700109,773520000,50.3263714,7.2184762
271,DRK Krankenhaus Altenkirchen-Hachenburg (HB),Hachenburg,Alte Frankfurter Straße 12,57627,609,157,26,260710327,772402000,50.6567551,7.830374
272,DRK Krankenhaus Kirchen,Kirchen,Bahnhofstraße 24,57548,823,235,29,260710350,771808000,50.8061329,7.8792628
273,Krankenhaus St. Marienwörth,Bad Kreuznach,Mühlenstraße 39,55543,569,180,32,260710394,773031000,49.8464188,7.8610687
274,Klinikum Idar-Oberstein GmbH,Idar-Oberstein,Dr.-Ottmar-Kohler-Straße 2,55743,555,176,32,260710646,772307000,49.7161834,7.3212833
275,St. Nikolaus-Stiftshospital GmbH Andernach,Andernach,Ernestus-Platz 1,56626,1095,240,22,260710748,771119000,50.4407047,7.4047772
276,Hunsrück Klinik kreuznacher diakonie,Simmern,Holzbacher Straße 1,55469,529,126,24,260710997,772202000,49.9805102,7.5173876
277,Herz-Jesu-Krankenhaus Dernbach,Dernbach,Südring 8,56428,532,148,28,260711180,772098000,50.4532024,7.7853595
278,Diakonie Krankenhaus kreuznacher diakonie,Bad Kreuznach,Ringstraße 64,55543,1233,499,40,260711636,772554000,49.8367828,7.863625
279,Marienhaus Klinikum St. Elisabeth Neuwied,Neuwied,Friedrich-Ebert-Straße 59,56564,1664,593,36,260711658,771924000,50.4278742,7.4709599
280,Katholisches Klinikum Koblenz·Montabaur,Koblenz,Kardinal-Krementz-Straße  1-5,56073,1088,311,29,260711852,771301000,50.3536031,7.5869392
281,Klinikum Mutterhaus der Borromäerinnen gGmbH Standort Mitte/Nord,Trier,Feldstraße 16,54290,2130,797,37,260720034,771463000,49.7548636,6.6319705
282,Marienhaus Klinikum Eifel - Standort Bitburg,Bitburg,Krankenhausstraße 1,54634,376,122,32,260720307,771730000,49.97173,6.5264611
283,St. Elisabeth Krankenhaus Wittlich,Wittlich,Koblenzer Straße 91,54516,1318,489,37,260720330,771854000,50.000609,6.8921032
284,Stadtklinik Frankenthal,Frankenthal,Elsa-Brändström-Straße 1,67227,282,106,38,260730014,771517000,49.5427022,8.3311645
285,Westpfalz-Klinikum GmbH - Standort I Kaiserslautern,Kaiserslautern,Hellmut-Hartert-Straße 1,67655,1089,439,40,260730025,772988000,49.4414169,7.7560839
286,Vinzentius-Krankenhaus Landau,Landau,Cornichonstraße 4,76829,978,323,33,260730081,772900000,49.1903125,8.1142225
287,St. Marien- und St. Annastiftskrankenhaus,Ludwigshafen,Salzburger Straße 15,67067,1437,487,34,260730127,772591000,49.4577634,8.4073044
288,Universitätsmedizin der Johannes Gutenberg-Universität Mainz,Mainz,Langenbeckstraße 1,55131,1847,774,42,260730161,771621000,49.9917813,8.2603945
289, Marienhaus Klinikum Mainz,Mainz,An der Goldgrube 11,55131,1760,384,22,260730183,772834000,49.9894603,8.2705606
290,Marienhaus Klinikum Hetzelstift,Neustadt an der Weinstraße,Stiftstraße 10,67434,425,148,35,260730229,772789000,49.3463039,8.1494815
291,Städtisches Krankenhaus Pirmasens gGmbH Standort Pirmasens,Pirmasens,Pettenkoferstraße 22,66955,825,309,37,260730263,773361000,49.1930487,7.6177302
292,Diakonissen-Stiftungs-Krankenhaus Speyer,Speyer,Paul-Egell-Straße 33,67346,3406,1295,38,260730309,771057000,49.3110892,8.4346112
293,Klinikum Worms gGmbH,Worms,Gabriel-von-Seidl-Str. 81,67550,1483,570,38,260730321,771693000,49.6493067,8.3200311
294,Kreiskrankenhaus Grünstadt,Grünstadt,Westring 55,67269,770,279,36,260730412,771109000,49.5637759,8.15786
295,Westpfalz-Klinikum GmbH - Standort III Kirchheimbolanden,Kirchheimbolanden,Dannenfelser Straße 36,67292,651,188,29,260730423,772990000,49.659134,8.0073192
296,Nardini Klinikum St. Johannis,Landstuhl,Nardinistr. 30,66849,799,269,34,260730478,772426000,49.3990068,7.5824388
297,Marienhospital Stuttgart,Stuttgart,Böheimstraße 37,70199,982,275,28,260810191,772796000,48.7609892,9.1633814
298,Robert Bosch Krankenhaus,Stuttgart,Auerbachstraße 110,70376,1165,406,35,260810271,772311000,48.8146647,9.1873791
299,Krankenhaus Herrenberg,Herrenberg,Marienstraße 25,71083,1128,241,21,260810431,771318000,48.5917634,8.875121
300,Krankenhaus Leonberg,Leonberg,Rutesheimer Straße 50,71229,611,163,27,260810453,771315000,48.8020131,9.0029488
301,Klinikum Esslingen GmbH,Esslingen am Neckar,Hirschlandstraße 97,73730,1656,552,33,260810475,771511000,48.7359681,9.3264681
302,medius KLINIK OSTFILDERN-RUIT,Ostfildern,Hedelfinger Str. 166,73760,870,176,20,260810523,772696000,48.7412207,9.2548634
303,Die Filderklinik gGmbH,Filderstadt,Im Haberschlai 7,70794,2202,373,17,260810545,772914000,48.6472613,9.2047531
304,ALB FILS KLINIKUM GmbH,Göppingen,Eichertstraße 3,73035,1686,585,35,260810589,772384000,48.6903119,9.6512629
305,Krankenhaus Bietigheim,Bietigheim-Bissingen,Riedstr. 12,74321,1688,481,28,260810625,772171000,48.9573453,9.1354806
306,Klinikum Ludwigsburg,Ludwigsburg,Posilipostraße 4,71640,2405,848,35,260810647,772121000,48.8989021,9.2035793
307,Rems-Murr-Klinik Schorndorf,Schorndorf,Schlichtener Straße 105,73614,560,180,32,260810716,772813000,48.7972867,9.5296473
308,Rems-Murr-Klinikum Winnenden,Winnenden,Am Jakobsweg 1,71364,2176,827,38,260810738,773028000,48.8703675,9.3921821
309,SLK-Kliniken Heilbronn GmbH - Klinikum am Gesundbrunnen,Heilbronn,Am Gesundbrunnen 20-26,74078,2968,547,18,260810794,772048000,49.1540716,9.189318
310,Hohenloher Krankenhaus gGmbH Standort: Öhringen,Öhringen,Kastellstraße 5,74613,874,205,23,260811114,773242000,49.2064207,9.4987491
311,Landkreis Schwäbisch Hall Klinikum gGmbH,Crailsheim,Gartenstr. 21,74564,698,202,29,260811125,772436000,49.1357543,10.0772346
312,Diakonie-Klinikum Schwäbisch Hall gGmbH,Schwäbisch Hall,Diakoniestraße 10,74523,1313,391,30,260811192,772437000,49.1248283,9.7417081
313,Klinikum Heidenheim gGmbH,Heidenheim,Schloßhaustraße 100,89522,915,327,36,260811498,771378000,48.6728039,10.1417872
314,Ostalb-Klinikum Aalen,Aalen,Im Kälblesrain 1,73430,1681,530,32,260811502,771469000,48.8492435,10.0859237
315,St. Anna-Virngrund-Klinik,Ellwangen,Dalkinger Straße 8-12,73479,322,102,32,260811546,771382000,48.9571201,10.1319408
316,Stauferklinikum Schwäbisch Gmünd,Mutlangen,Wetzgauer Str. 85,73557,1529,468,31,260811579,771470000,48.8195896,9.7874243
317,medius KLINIK NÜRTINGEN,Nürtingen,Auf dem Säer 1,72622,1329,310,23,260812273,772706000,48.6291919,9.3564167
318,Klinikum Stuttgart - Olgahospital / Frauenklinik (OH/FK),Stuttgart,Kriegsbergstraße 62,70174,3157,1463,46,260812364,772786000,48.7843184,9.1717916
319,Kliniken Böblingen,Böblingen,Bunsenstraße 120,71032,2641,931,35,260812525,771314000,48.6897835,9.0331835
320,Caritas-Krankenhaus Bad Mergentheim,Bad Mergentheim,Uhlandstraße 7,97980,1224,368,30,260812558,772383000,49.4904375,9.7638291
321,St. Anna-Klinik,Stuttgart,Obere Waiblinger Str. 101,70374,696,275,40,260812569,772571000,48.8072126,9.2302905
322,Klinikum Mittelbaden Baden-Baden Balg,Baden-Baden,Balger Str. 50,76532,1747,697,40,260820013,772902000,48.7843063,8.216508
323,Städtisches Klinikum Karlsruhe gGmbH,Karlsruhe,Moltkestraße 90,76133,2451,878,36,260820115,772143000,49.0156523,8.3745829
324,Diakonissenkrankenhaus ,Karlsruhe,Diakonissenstraße 28,76199,1357,338,25,260820137,771801000,48.9712006,8.4099831
325,St. Vincentius Kliniken ,Karlsruhe,Steinhäuserstraße 18,76135,970,266,27,260820137,771802000,48.9995634,8.3782438
326,Fürst-Stirum-Klinik Bruchsal,Bruchsal,Gutleutstraße 1-14,76646,935,283,30,260820284,772071000,49.1321188,8.6039746
327,Universitätsklinikum Heidelberg: Campus,Heidelberg,Im Neuenheimer Feld 672,69120,2287,1062,46,260820466,771700000,49.4199193,8.6676297
328,"UKHD: Zentrum für Orthopädie, Unfallchirurgie und Paraplegiologie",Heidelberg,Schlierbacher Landstr. 200,69118,Datenschutz,Datenschutz,Datenschutz,260820466,773321000,49.40929,8.7739845
329,St. Josefskrankenhaus Heidelberg GmbH,Heidelberg,Landhausstraße 25,69115,723,216,30,260820499,771138000,49.4025657,8.688835
330,Klinik Sankt Elisabeth GmbH,Heidelberg,Max-Reger-Straße  5 - 7,69121,1006,347,34,260820514,773704000,49.4225321,8.6819217
331,Universitätsklinikum Mannheim GmbH,Mannheim,Theodor-Kutzer-Ufer 1-3,68167,2559,1108,43,260820569,772389000,49.4923524,8.4867398
332,"Theresienkrankenhaus und Diako gGmbH, Standort Diako Mannheim",Mannheim,Speyerer Straße 91-93,68163,1053,434,41,260820570,771219000,49.4633883,8.4694053
333,QSB-BCH 2023,Buchen,Dr. Konrad-Adenauer-Straße 37,74722,749,183,24,260820650,772039000,49.5240648,9.3082973
334,GRN-Klinik Schwetzingen,Schwetzingen,Bodelschwinghstraße 10,68723,644,188,29,260820774,771953000,49.3778789,8.5704262
335,GRN-Klinik Sinsheim,Sinsheim,Alte Waibstadter Straße 2,74889,1186,313,26,260820785,771951000,49.2524474,8.8902886
336,Helios Klinikum Pforzheim GmbH ,Pforzheim,Kanzlerstraße 2-6,75175,1614,562,35,260820854,773169000,48.8889734,8.7123224
337,Siloah St. Trudpert Klinikum,Pforzheim,Wilferdinger Straße 67,75179,1082,249,23,260820865,771417000,48.8972935,8.6726041
338,Kreiskliniken Calw,Calw,Eduard-Conz-Straße 6,75365,439,107,24,260821025,771316000,48.7154508,8.744846
339,Krankenhaus Mühlacker,Mühlacker,Hermann-Hesse-Straße 34,75417,6,6,100,260821241,771995000,48.9506719,8.8605894
340,Klinikum Freudenstadt,Freudenstadt,Karl-von-Hahn-Straße 100,72250,957,309,32,260821376,773536000,48.4759169,8.4053851
341,GRN-Klinik Weinheim,Weinheim,Röntgenstraße 1,69469,703,206,29,260821902,771954000,49.54983,8.6448373
342,Ev. Diakoniekrankenhaus,Freiburg,Wirthstraße 11,79110,1303,324,25,260830026,771430000,48.0239007,7.8157198
343,St Josefskrankenhaus,Freiburg,Sautierstr. 1,79104,1901,615,32,260830048,771473000,48.0019181,7.8521998
344,HELIOS Klinik Titisee-Neustadt,Titisee-Neustadt,Jostalstraße 12,79822,519,151,29,260830572,771820000,47.9257363,8.1870108
345,Kreiskrankenhaus Emmendingen,Emmendingen,Gartenstraße 44,79312,507,133,26,260830629,773126000,48.1252505,7.855804
346,Helios Klinik Rottweil,Rottweil,Krankenhausstraße 30,78628,831,200,24,260831061,771543000,48.1654267,8.6126921
347,Schwarzwald-Baar Klinikum Villingen-Schwenningen GmbH,Villingen-Schwenningen,Klinikstraße 11,78052,2315,914,39,260831312,773574000,48.0646237,8.4991647
348,Klinikum Konstanz,Konstanz,Mainaustraße 35,78464,868,285,33,260831481,772585000,47.6720647,9.1883441
349,Hegau-Bodensee-Klinikum Singen,Singen,Virchowstr. 10,78224,1360,561,41,260831551,773017000,47.759353,8.8215343
350,St. Elisabethen-Krankenhaus Lörrach,Lörrach,Feldbergstraße 15,79539,1851,582,31,260831619,772154000,47.6174567,7.6651006
351,Klinikum Hochrhein,Waldshut-Tiengen,Kaiserstraße 93-101,79761,583,223,38,260831960,771416000,47.6224982,8.2078557
352,Universitätsklinikum Freiburg,Freiburg,Hugstetter Straße 55,79106,1877,765,41,260832299,773657000,48.0060746,7.8411712
353,HELIOS Klinik Müllheim,Müllheim,Heliosweg 1,79379,358,97,27,260832847,771975000,47.8115918,7.6349846
354,Ortenau Klinikum Achern,Achern,Josef-Wurzler-Straße 7,77855,765,224,29,260833519,772210000,48.6252884,8.0662272
355,Ortenau Klinikum Lahr,Lahr,Klostenstrasse 19,77933,593,182,31,260833520,771962000,48.3444307,7.8854433
356,Ortenau Klinikum Offenburg-Kehl Standort Offenburg,Offenburg,Ebertplatz 12,77654,2147,798,37,260833531,771833000,48.4760175,7.9546313
357,Klinikum am Steinenberg,Reutlingen,Steinenbergstraße 31,72764,1851,510,28,260840028,771565000,48.483878,9.218334
358,Universitätsklinikum Tübingen,Tübingen,Geissweg 3,72076,3393,1575,46,260840108,772041000,48.5277394,9.0489311
359,Zollernalb Klinikum gGmbH,Balingen,Tübinger Straße  30,72336,1183,388,33,260840164,772128000,48.2775609,8.8572836
360,Universitätsklinikum Ulm,Ulm,Eythstraße 24,89075,3156,1198,38,260840200,773712000,48.4108529,9.9925123
361,Alb-Donau Klinikum Ehingen,Ehingen,Spitalstraße 29,89584,816,171,21,260840288,771748000,48.2805841,9.7190302
362,Sana Klinikum Biberach,Biberach,Marie-Curie-Straße 4,88400,841,234,28,260840426,773855000,48.1121455,9.7795564
363,Klinikum Friedrichshafen GmbH,Friedrichshafen,Röntgenstr. 2,88048,1134,462,41,260840493,771843000,47.6728136,9.4300011
364,Helios Spital Überlingen GmbH,Überlingen,Härlenweg 1,88662,410,110,27,260840621,772122000,47.7748077,9.1509019
365,Westallgäu-Klinikum,Wangen im Allgäu,Am Engelberg 29,88239,652,155,24,260840949,773107000,47.6941068,9.8444073
366,SRH Krankenhaus Sigmaringen,Sigmaringen,Hohenzollernstrasse 40,72488,604,171,28,260841041,772740000,48.0962031,9.2261244
367,Klinikum Aschaffenburg-Alzenau gemeinnützige GmbH,Aschaffenburg,Am Hasenkopf 1,63739,2191,678,31,260900134,773249000,49.9762408,9.1861109
368,Klinikum Würzburg Mitte gGmbH,Würzburg,Salvatorstr. 7,97074,2228,688,31,260900189,772735000,49.7941802,9.9531971
369,Klinik Hallerwiese-Cnopfsche Kinderklinik,Nürnberg,St.-Johannis-Mühlgasse 19,90419,3021,799,26,260900338,771453000,49.4567681,11.0666508
370,RHÖN-KLINIKUM Campus Bad Neustadt,Bad Neustadt a. d. Saale,Von-Guttenberg-Str.  11,97616,458,141,31,260900407,771125000,50.3227554,10.2343508
371,Helios Klinikum München West,München,Steinerweg 5,81241,977,266,27,260910090,772207000,48.1444878,11.4542841
372,Klinikum Dritter Orden München-Nymphenburg,München,Menzinger Str. 44,80638,2975,1285,43,260910192,771177000,48.1656655,11.504723
373,Frauenklinik Dr. Geisenhofer,München,Hirschauer Str. 6,80538,1877,1046,56,260910546,772377000,48.1515148,11.5960485
374,RoMed Klinikum Rosenheim,Rosenheim,Ellmaierstraße 23,83022,1727,698,40,260910637,772849000,47.8586585,12.1286902
375,InnKlinikum Altötting,Altötting,Vinzenz-von-Paul-Str. 10,84503,1672,544,33,260910693,772675000,48.2339889,12.6751487
376,Kreisklinik Bad Reichenhall,Bad Reichenhall,Riedelstr. 5,83435,425,108,25,260910933,772271000,47.7280751,12.8717201
377,Helios Amper-Klinikum Dachau,Dachau,Krankenhausstraße 15,85221,669,210,31,260911137,771686000,48.2654866,11.4281485
378,Kreisklinik Ebersberg gemeinnützige GmbH,Ebersberg,Pfarrer-Guggetzer-Straße 3,85560,601,118,20,260911171,771388000,48.0763184,11.9604748
379,Klinikum Landkreis Erding,Erding,Bajuwarenstraße 5,85435,562,162,29,260911239,771151000,48.2954067,11.8978088
380,Klinikum Freising GmbH,Freising,Alois-Steinecker-Straße 18,85354,748,270,36,260911273,772067000,48.4050378,11.7446064
381,Klinikum Fürstenfeldbruck,Fürstenfeldbruck,Dachauer Str. 33,82256,601,159,26,260911295,772387000,48.1808812,11.2593161
382,Klinikum Garmisch-Partenkirchen - Haupthaus,Garmisch-Partenkirchen,Auenstraße 6,82467,1100,360,33,260911320,773617000,47.4833134,11.1283787
383,Klinikum Landsberg am Lech,Landsberg am Lech,Bgm.-Dr.-Hartmann-Str. 50,86899,1432,501,35,260911444,773309000,48.0480389,10.8566236
384,AMEOS Klinikum St. Elisabeth Neuburg,Neuburg a. d. Donau,Müller-Gnadenegg-Weg 4,86633,903,292,32,260911832,773487000,48.7310408,11.1740615
385,RoMed Klinik Wasserburg,Wasserburg am Inn,Gabersee  1,83512,829,188,23,260912194,773862000,48.0577432,12.2023951
386,Klinikum Starnberg,Starnberg,Oßwaldstr. 1,82319,2668,917,34,260912285,773170000,48.0067375,11.3349898
387,Klinikum Starnberg - Außenstelle Wolfratshausen,Wolfratshausen,Moosbauerweg 5,82515,582,130,22,260912285,773171000,47.9118292,11.4288155
388,Klinikum Traunstein,Traunstein,Cuno-Niggl-Str. 3,83278,1529,528,35,260912434,772274000,47.873791,12.6318425
389,Krankenhaus Schongau,Schongau,Marie-Eberth-Straße 6,86956,150,38,25,260912490,771551000,47.8252581,10.8986654
390,Klinikum Ingolstadt,Ingolstadt,Krumenauerstraße 25,85049,2589,1149,44,260913037,773586000,48.7694308,11.3772507
391,Ilmtalklinik GmbH Pfaffenhofen,Pfaffenhofen,Krankenhausstraße 70,85276,747,259,35,260913117,772983000,48.5180908,11.4991655
392,Klinikum rechts der Isar der Technischen Universität München,München,Ismaninger Straße 22,81675,1700,542,32,260913195,772053000,48.1360725,11.5994937
393,"München Klinik Schwabing, München Klinik gGmbH",München,Kölner Platz 1,80804,2357,763,32,260913446,771085000,48.1719298,11.5783492
394,"München Klinik Neuperlach, München Klinik gGmbH",München,Oskar-Maria-Graf-Ring 51,81737,1186,226,19,260913468,771084000,48.0944364,11.6561055
395,"München Klinik Harlaching, München Klinik gGmbH",München,Sanatoriumsplatz 2,81545,2192,705,32,260913479,771083000,48.0856455,11.5572092
396,Krankenhaus Agatharied,Hausham,Norbert-Kerkel-Platz 1,83734,1153,339,29,260913798,773438000,47.769103,11.8269747
397,Standort Innenstadt,München,Ziemssenstr. 5,80336,2171,565,26,260914050,771734000,48.1327875,11.5615957
398,Campus Großhadern,München,Marchioninistraße 15,81377,1683,618,37,260914050,771736000,48.1107056,11.4693622
399,Rotkreuzklinikum München gGmbH ,München,Nymphenburger Straße 163,80634,2828,1101,39,260914492,771813000,48.1541708,11.5326594
400,"Kliniken im Naturpark Altmühltal A.d.ö.R., Klinik Kösching",Kösching,Krankenhausstr. 19,85092,411,146,36,260914868,771577000,48.8150471,11.5069175
401,Klinikum Landshut Anstalt des öffentlichen Rechts der Stadt Landshut ,Landshut,Robert-Koch-Straße 1,84034,668,216,32,260920014,773514000,48.5376922,12.1374237
402,Krankenhaus Landshut-Achdorf,Landshut,Achdorfer Weg 3,84036,1997,863,43,260920025,772546000,48.5233443,12.149907
403,Klinikum Passau,Passau,Innstraße 76,94032,2079,628,30,260920069,772859000,48.5650356,13.4453357
404,Klinikum St. Elisabeth Straubing GmbH,Straubing,St.-Elisabeth-Str. 23,94315,669,235,35,260920092,771254000,48.8864296,12.5909968
405,DONAUISAR Klinikum Deggendorf,Deggendorf,Perlasberger Str. 41,94469,1711,590,34,260920127,772414000,48.8391963,12.9698983
406,DONAUISAR Klinikum Dingolfing,Dingolfing,Teisbacher Str. 1,84130,349,129,37,260920172,772415000,48.6217338,12.4898451
407,Caritas-Krankenhaus St. Lukas GmbH ,Kelheim,Traubenweg 3,93309,582,192,33,260920285,772085000,48.9239405,11.8860668
408,Krankenhaus Vilsbiburg,Vilsbiburg,Krankenhausstraße 2,84137,401,137,34,260920387,772548000,48.4449248,12.360079
409,Arberlandklinik Zwiesel,Zwiesel,Arberlandstraße 1,94227,340,111,33,260920617,771187000,49.0072976,13.2183653
410,Rottal-Inn Klinik Standort Eggenfelden,Eggenfelden,Simonsöder Allee 20,84307,646,241,37,260920639,771269000,48.4133097,12.7600363
411,Krankenhaus Freyung,Freyung,Krankenhausstraße 6,94078,474,158,33,260921231,771713000,48.8054935,13.5458475
412,Klinikum St. Marien Amberg,Amberg,Mariahilfbergweg 7,92224,1410,550,39,260930016,772510000,49.4478642,11.8669538
413,Krankenhaus Barmherzige Brüder Regensburg,Regensburg,Prüfeninger Str. 86,93049,3079,914,30,260930050,771597000,49.0158519,12.064153
414,Caritas-Krankenhaus St. Josef,Regensburg,Landshuter Straße 65,93053,1219,306,25,260930061,771144000,49.0068225,12.1191726
415,Kliniken Nordoberpfalz AG - Weiden,Weiden i. d. OPf.,Söllnerstraße 16,92637,1428,611,43,260930129,771930000,49.6810074,12.1664352
416,St. Anna Krankenhaus,Sulzbach-Rosenberg,Krankenhausstr. 16,92237,457,140,31,260930163,773646000,49.5046499,11.7295457
417,Klinikum Neumarkt,Neumarkt,Nürnberger Straße 12,92318,856,305,36,260930301,771096000,49.2862589,11.4523605
418,Krankenhaus St. Barbara,Schwandorf,Steinberger Straße 24,92421,633,108,17,260930492,771113000,49.3161353,12.1140235
419,Kliniken Nordoberpfalz AG - Tirschenreuth,Tirschenreuth,St.-Peter-Str. 31,95643,294,162,55,260930528,771933000,49.8852041,12.3320245
420,Sana Kliniken des Landkreises Cham - Krankenhaus Cham,Cham,August-Holz-Str. 1,93413,670,206,31,260930799,772430000,49.2248511,12.6598306
421,Klinikum Bamberg - Betriebsstätte am Bruderwald,Bamberg,Buger Straße 80,96049,2074,665,32,260940029,771420000,49.8671849,10.8905602
422,Klinikum Bayreuth,Bayreuth,Preuschwitzer Straße 101,95445,1162,418,36,260940109,772810000,49.9436118,11.5323659
423,Klinikum Coburg GmbH,Coburg,Ketschendorfer Straße 33,96450,1092,391,36,260940154,771718000,50.2468801,10.973119
424,Sana Klinikum Hof,Hof,Eppenreuther Str. 9,95032,607,182,30,260940198,771124000,50.3026772,11.9154026
425,Klinikum Forchheim Fränkische Schweiz gGmbH Standort Forchheim,Forchheim,Krankenhausstraße 10,91301,525,116,22,260940358,771246000,49.7133072,11.0793153
426,Helios Frankenwaldklinik Kronach,Kronach,Friesener Straße 41,96317,447,155,35,260940416,771070000,50.2438042,11.3323544
427,Klinikum Kulmbach,Kulmbach,Albert-Schweitzer-Straße 10,95326,690,232,34,260940449,771090000,50.1181109,11.466522
428,REGIOMED Klinikum Lichtenfels,Lichtenfels,Professor-Arneth-Straße 2,96215,416,140,34,260940483,771719000,50.1364421,11.2581072
429,Kommunalunternehmen Klinikum Fichtelgebirge - Haus Marktredwitz,Marktredwitz,Schillerhain 1-8,95615,462,185,40,260940520,771308000,50.0018257,12.0662375
430,ANregiomed Klinik Rothenburg,Rothenburg,Ansbacher Str. 131,91541,95,35,37,260950011,773459000,49.3776909,10.1997998
431,ANregiomed Klinikum Ansbach,Ansbach,Escherichstraße 1,91522,1034,310,30,260950011,773460000,49.3206271,10.5591221
432,Klinikum Fürth,Fürth,Jakob-Henle-Straße 1,90766,1868,507,27,260950077,771362000,49.4847431,10.9746844
433,Klinikum Nürnberg Süd,Nürnberg,Breslauer Straße 201,90471,3013,872,29,260950099,771375000,49.4130526,11.1469954
434,St. Theresien-Krankenhaus Nürnberg gGmbH,Nürnberg,Mommsenstraße 24,90491,686,186,27,260950113,771452000,49.469291,11.1107344
435,Klinik Neustadt an der Aisch,Neustadt an der Aisch,Paracelsusstr. 30,91413,514,155,30,260950351,771499000,49.5819286,10.6223962
436,Krankenhäuser Nürnberger Land GmbH - Krankenhaus Lauf,Lauf,Simonshofer Straße 55,91207,682,187,27,260950419,771186000,49.5202319,11.2796887
437,Kreisklinik Roth,Roth,Weinbergweg 14,91154,453,118,26,260950486,773078000,49.2356345,11.0721655
438,Universitätsklinikum Erlangen,Erlangen,Maximiliansplatz 2,91054,2482,715,29,260950567,771175000,49.6008509,11.0104406
439,Klinikum Altmühlfranken Weißenburg,Weißenburg,Krankenhausstr. 1,91781,671,203,30,260950727,771357000,49.0342681,10.9847924
440,Aschaffenburg,Aschaffenburg,Ziegelbergstr. 5,63739,694,299,43,260960035,773702000,49.9784899,9.1331113
441,Leopoldina-Krankenhaus der Stadt Schweinfurt GmbH,Schweinfurt,Gustav-Adolf-Str. 6-8,97422,1575,491,31,260960046,771529000,50.0533385,10.2439725
442,Krankenhaus St. Josef,Schweinfurt,Ludwigstraße 1,97421,63,25,40,260960057,771550000,50.0436834,10.225196
443,Universitätsklinikum Würzburg,Würzburg,Oberdürrbacher Straße 6,97080,2024,782,39,260960079,773642000,49.8060767,9.9581188
444,Hassberg-Kliniken Haus Haßfurt,Haßfurt,Hofheimer Str. 69,97437,476,121,25,260960547,771093000,50.0404391,10.5144236
445,Klinik Kitzinger Land,Kitzingen,Keltenstraße 67,97318,400,122,30,260960569,773323000,49.7437984,10.1395039
446,Helios Klinik Erlenbach,Erlenbach am Main,Krankenhausstr. 45,63906,705,206,29,260960649,771578000,49.8109038,9.1658383
447,Universitätsklinikum Augsburg - Medizincampus,Augsburg,Stenglinstr. 2,86156,2533,1064,42,260970015,772997000,48.3848965,10.8396834
448,Universitätsklinikum Augsburg - Medizincampus Süd,Augsburg,Sauerbruchstr. 6,86179,29,13,45,260970015,773108000,48.3059503,10.9165982
449,KJF Klinik Josefinum gGmbH,Augsburg,Joseph-Mayer-Straße 1,86154,3281,919,28,260970060,773482000,48.3850833,10.8752299
450,Klinikum Kaufbeuren,Kaufbeuren,Dr.-Gutermann-Straße 2,87600,835,291,35,260970140,773614000,47.8880549,10.610978
451,Klinikverbund Allgäu gGmbH - Klinikum Kempten,Kempten,Robert-Weixler-Straße 50,87439,1774,525,30,260970173,771222000,47.7298671,10.3034465
452,Klinikverbund Allgäu gGmbH - Klinik Immenstadt,Immenstadt,Im Stillen 2-3,87509,648,188,29,260970173,771223000,47.5632037,10.2283577
453,Klinikum Memmingen AöR,Memmingen,Bismarckstraße 23,87700,2062,580,28,260970219,772549000,47.9824646,10.1689987
454,Krankenhaus Friedberg,Friedberg,Herrgottsruhstr. 3,86316,652,119,18,260970242,773009000,48.3561346,10.9857922
455,"Kommunalunternehmen Kreiskliniken Günzburg-Krumbach, Klinik Günzburg",Günzburg,Lindenallee 1,89312,532,151,28,260970457,771661000,48.4567007,10.293932
456,Kreisklinik Krumbach,Krumbach,Mindelheimer Straße 69,86381,287,88,31,260970480,771662000,48.237337,10.3662826
457,Asklepios Klinik Lindau,Lindau,Friedrichshafener Straße 82,88131,364,104,29,260970549,771419000,47.5636716,9.6841659
458,Donauklinik Neu-Ulm,Neu-Ulm,Krankenhausstraße 11,89231,1392,321,23,260970630,773273000,48.3940266,9.993967
459,Klinik Füssen,Füssen,Stadtbleiche 1,87629,486,137,28,260970890,773613000,47.5668356,10.7045634
460,Klinikverbund Allgäu gGmbH - Klinik Mindelheim,Mindelheim,Bad Wörishofer Straße 44,87719,587,134,23,260971210,773547000,48.0408635,10.493204
461,Kreisklinik St. Elisabeth,Dillingen a.d. Donau,Ziegelstraße  38,89407,447,151,34,260971937,773625000,48.576263,10.4812502
462,Donau-Ries Klinik Donauwörth,Donauwörth,Neudegger Allee 6,86609,488,147,30,260972233,773619000,48.724749,10.7540637
463,Stiftungskrankenhaus Nördlingen,Nördlingen,Stoffelsberg 4,86720,485,178,37,260972233,773620000,48.8366934,10.4996541
464,Klinikum Saarbrücken,Saarbrücken,Winterberg  1,66119,1393,562,40,261000013,771100000,49.2212209,6.994143
465,Klinikum Merzig gGmbH,Merzig,Trierer Straße 148,66663,466,177,38,261000160,773407000,49.4571859,6.6315777
466,Krankenhaus Saarlouis vom DRK,Saarlouis,Vaubanstraße 25,66740,663,206,31,261000320,772610000,49.3136491,6.7442788
467,Marienhaus Klinikum St. Elisabeth Saarlouis,Saarlouis,Kapuziner Straße 4,66740,1114,334,30,261000331,771167000,49.3152364,6.7564872
468,Universitätsklinikum des Saarlandes,Homburg,Kirrberger Straße 100,66421,1450,676,47,261000386,771261000,49.306219,7.3464925
469,Marienhaus Klinikum St. Wendel - Ottweiler,St. Wendel,Am Hirschberg 1,66606,441,137,31,261000422,772400000,49.4541129,7.1785542
470,Marienhaus Klinikum Neunkirchen,Neunkirchen,Klinikweg 1-5,66539,1417,513,36,261000898,772663000,49.3177556,7.2270153
471,CaritasKlinikum Saarbrücken Standort St. Theresia,Saarbrücken,Rheinstraße 2,66113,1684,558,33,261000934,773075000,49.2486598,6.9597177
472,Evangelisches Waldkrankenhaus Spandau,Berlin,Stadtrandstraße 555,13589,2132,678,32,261100263,771637000,52.5629991,13.1569429
473,"Martin Luther Krankenhaus, Berlin",Berlin,Caspar-Theyß-Straße 27-31,14193,1454,422,29,261100310,772079000,52.4900806,13.2908538
474,Sankt Gertrauden-Krankenhaus GmbH,Berlin,Paretzer Straße 12,10713,515,167,32,261100321,772557000,52.4802288,13.317198
475,Krankenhaus Waldfriede e.V.,Berlin,Argentinische Allee 40,14163,823,274,33,261100456,771653000,52.4444805,13.240098
476,St.Joseph Krankenhaus,Berlin,Wüsthoffstraße 15,12101,3974,1129,28,261100855,771917000,52.4781421,13.3729493
477,Charité - Universitätsmedizin Berlin,Berlin,Charitéplatz 1,10117,1761,741,42,261101015,772563000,52.5258523,13.3777575
478,Caritas-Klinik Maria Heimsuchung Berlin-Pankow,Berlin,Breite Straße 46/47,13187,1510,193,13,261101264,772045000,52.571361,13.411153
479,Helios Klinikum Berlin-Buch,Berlin,Schwanebecker Chaussee 50,13125,2720,862,32,261101300,773608000,52.6314106,13.503784
480,DRK Kliniken Berlin Köpenick,Berlin,Salvador-Allende-Straße 2 - 8,12559,824,206,25,261101311,772832000,52.4389862,13.5944808
481,Sana Klinikum Lichtenberg,Berlin,Fanningerstraße 32,10365,2408,700,29,261101527,773403000,52.5132845,13.4959012
482,DRK Kliniken Berlin Westend,Berlin,Spandauer Damm 130,14050,2390,881,37,261101561,773065000,52.5206596,13.2775493
483,Vivantes Klinikum im Friedrichshain,Berlin,Landsberger Allee 49,10249,3050,906,30,261101878,773179000,52.5255105,13.4393691
484,Vivantes Klinikum Am Urban,Berlin,Dieffenbachstraße  1,10967,1236,241,19,261101878,773181000,52.4939186,13.4086236
485,Vivantes Klinikum Kaulsdorf,Berlin,Myslowitzer Straße 45,12621,707,127,18,261101878,773182000,52.5067558,13.5938102
486,Vivantes Klinikum Neukölln,Berlin,Rudower Straße 48,12351,2687,1019,38,261101878,773183000,52.4372244,13.4592239
487,Vivantes Auguste-Viktoria-Klinikum,Berlin,Rubensstraße 125,12157,1616,358,22,261101878,773184000,52.4624325,13.3463907
488,Vivantes Humboldt-Klinikum,Berlin,Am Nordgraben  2,13509,627,165,26,261101878,773186000,52.589759,13.3077559
489,Gemeinschaftskrankenhaus Havelhöhe,Berlin,Kladower Damm 221,14089,1093,224,20,261110049,772788000,52.4622327,13.1639917
490,Evangelisches Krankenhaus Ludwigsfelde Teltow,Ludwigsfelde,Albert-Schweitzer-Straße 40 - 44,14974,369,112,30,261200071,772949000,52.3107317,13.2578627
491,Kreiskrankenhaus Prignitz gemeinnützige GmbH,Perleberg,Dobberziner Straße 112,19348,329,109,33,261200106,772034000,53.0739528,11.8735286
492,Universitätsklinikum Ruppin-Brandenburg,Neuruppin,Fehrbelliner Straße 38,16816,546,196,36,261200140,771991000,52.9061618,12.7971604
493,St. Josefs-Krankenhaus Potsdam-Sanssouci,Potsdam,Allee nach Sanssouci 7,14471,634,201,32,261200162,771342000,52.3994735,13.044298
494,Krankenhaus Märkisch Oderland GmbH,Strausberg,Prötzeler Chaussee 5,15344,226,74,33,261200219,771738000,52.5887367,13.9010345
495,"Klinikum Ernst von Bergmann gemeinnützige GmbH, Standort Potsdam",Potsdam,Charlottenstraße 72,14467,1429,404,28,261200220,772760000,52.4011829,13.0658244
496,Asklepios Klinikum Uckermark GmbH,Schwedt,Am Klinikum 1,16303,243,107,44,261200264,771340000,53.0532176,14.275758
497,Städtisches Krankenhaus Eisenhüttenstadt GmbH,Eisenhüttenstadt,Friedrich-Engels-Straße 39,15890,49,34,69,261200286,772454000,52.1412225,14.6249318
498,Immanuel Klinikum Bernau Herzzentrum Brandenburg,Bernau,Ladeburger Straße 17,16321,463,107,23,261200311,773116000,52.6832448,13.582028
499,GLG Werner Forßmann Klinikum Eberswalde GmbH,Eberswalde,Rudolf-Breitscheid-Straße 100,16225,624,166,27,261200322,771508000,52.8289123,13.7918402
500,Immanuel Klinik Rüdersdorf,Rüdersdorf bei Berlin,Seebad 82/83,15562,914,274,30,261200402,773115000,52.4546413,13.7728508
501,Oberhavel Kliniken GmbH / Klinik Oranienburg,Oranienburg,Robert-Koch-Straße 2-12,16515,683,214,31,261200435,771029000,52.739935,13.2526362
502,Universitätsklinikum Brandenburg an der Havel GmbH,Brandenburg an der Havel,Hochstraße 29,14770,880,280,32,261200457,772221000,52.4126014,12.5475217
503,"Havelland Kliniken GmbH, Klinik Nauen",Nauen,Ketziner Straße 21,14641,324,105,32,261200538,772643000,52.6007689,12.8758899
504,2023 - Luckenwalde,Luckenwalde,Saarstraße 1,14943,180,47,26,261200549,773341000,52.0997522,13.1793365
505,Carl-Thiem-Klinikum Cottbus gGmbH,Cottbus,Thiemstrasse 111,03048,955,340,36,261200721,773088000,51.7412386,14.3197683
506,Sana Kliniken Niederlausitz gGmbH,Lauchhammer,Friedensstraße 18,01979,406,90,22,261200856,773389000,51.4984944,13.7892691
507,Lausitz Klinik Forst GmbH,Forst,Robert-Koch-Straße 35,03149,320,99,31,261201027,772198000,51.7544519,14.6390585
508,Klinikum Frankfurt (Oder) GmbH,Frankfurt,Müllroser Chaussee 7,15236,689,279,40,261201061,771632000,52.3023409,14.4823242
509,Klinikum Frankfurt (Oder) GmbH Tagesklinik Frankfurt (Oder),Frankfurt,Heilbronner Straße 1,15230,10,6,60,261201061,771633000,52.3424681,14.5435709
510,Sana Krankenhaus Templin,Templin,Robert-Koch-Straße 24,17268,13,5,38,261201221,772401000,53.119292,13.5056686
511,Elbe-Elster Klinikum GmbH Krankenhaus Herzberg,Herzberg,Alte Prettiner Straße 0,04916,343,62,18,261201312,772543000,51.6843295,13.2076866
512,HELIOS Klinikum Bad Saarow,Bad Saarow,Pieskower Straße 33,15526,590,168,28,261201356,771839000,52.2837363,14.0626258
513,Spreewaldklinik Lübben,Lübben,Schillerstrasse 29,15907,356,107,30,261201414,772820000,51.9437697,13.8736188
514,Achenbach Krankenhaus Königs Wusterhausen,Königs Wusterhausen,Köpenicker Strasse 29,15711,530,134,25,261201414,772821000,52.302681,13.6271259
515,MediClin Müritz-Klinikum,Waren,Weinbergstraße 19,17192,334,99,30,261300050,773471000,53.5223824,12.6859755
516,Klinikum Südstadt Rostock,Rostock,Südring 81,18059,2176,677,31,261300118,771003000,54.0717274,12.1066615
517,Westmecklenburg Klinikum Helene von Bülow,Hagenow,Parkstraße 12,19230,677,175,26,261300129,772800000,53.4343701,11.1819575
518,Kreiskrankenhaus Demmin GmbH,Demmin,Wollweberstraße 21,17109,423,159,38,261300130,772074000,53.9020516,13.0418846
519,Universitätsmedizin Greifswald - Körperschaft des öffentlichen Rechts,Greifswald,Fleischmannstraße 8,17475,708,262,37,261300152,773589000,54.0881837,13.4024372
520,Helios Kliniken Schwerin,Schwerin,Wismarsche Straße 393-397,19055,1062,339,32,261300185,772916000,53.6514219,11.4082224
521,2023 Güstrow,Güstrow,Friedrich-Trendelenburg-Allee 1,18273,608,176,29,261300276,772987000,53.8109937,12.2003523
522,Sana-Krankenhaus Rügen GmbH,Bergen auf Rügen,Calandstr. 7/8,18528,33,17,52,261300312,772096000,54.4196619,13.4289453
523,DRK-Krankenhaus Mecklenburg-Strelitz gGmbH,Neustrelitz,Penzliner Straße 56,17235,205,89,43,261300345,773039000,53.3802453,13.0525459
524,Sana HANSE-Klinikum Wismar GmbH,Wismar,Störtebekerstraße 6,23966,653,192,29,261300356,773325000,53.8844905,11.4384072
525,Helios Hanseklinikum Stralsund,Stralsund,Große Parower Straße 47-53,18435,790,278,35,261300367,771436000,54.3284098,13.0816926
526,AKG Klinik Parchim GmbH,Parchim,John-Brinckman-Straße 8-10,19370,199,68,34,261300675,773601000,53.4300054,11.8540303
527,Asklepios Klinik Pasewalk,Pasewalk,Prenzlauer Chaussee 30,17309,356,123,35,261300744,773369000,53.4893772,13.9856919
528,AMEOS Klinikum Ueckermünde,Ueckermünde,Ravensteinstraße 23,17373,Datenschutz,Datenschutz,Datenschutz,261300802,773374000,53.7413725,14.0195522
529,Anklam,Anklam,Hospitalstraße 19,17389,337,109,32,261300802,773375000,53.8485562,13.6990015
530,Dietrich-Bonhoeffer-Klinikum Standort Neubrandenburg,Neubrandenburg,Salvador-Allende-Straße 30,17036,742,246,33,261320010,772893000,53.5446722,13.2939278
531,St.Johannes Krankenhaus,Kamenz,Nebelschützer Straße 40,01917,344,63,18,261400017,772142000,51.2640966,14.1238952
532,Krankenhaus St. Joseph-Stift Dresden GmbH,Dresden,Wintergartenstraße 15/17,01307,1246,197,16,261400039,771043000,51.0439525,13.760638
533,Diakonissenkrankenhaus Dresden,Dresden,Holzhofgasse 29,01099,1028,177,17,261400040,771783000,51.063117,13.7614974
534,Pleißental-Klinik GmbH,Werdau,Ronneburger Straße 106,08412,533,126,24,261400051,772433000,50.7423485,12.3668469
535,Rudolf Virchow Klinikum Glauchau,Glauchau,Virchow Str. 18,08371,384,122,32,261400084,772880000,50.8096111,12.5509454
536,"Heinrich-Braun-Klinikum gemeinnützige GmbH, Standort Zwickau",Zwickau,Karl-Keil-Straße 35,08060,750,242,32,261400379,772365000,50.7225016,12.4311037
537,Klinikum Obergöltzsch Rodewisch,Rodewisch,Stiftstraße 10,08228,573,134,23,261400380,771157000,50.5231386,12.4108526
538,Klinikum St. Georg gGmbH,Leipzig,Delitzscher Straße 141,04129,1485,386,26,261400530,772884000,51.3840002,12.3810491
539,"Muldentalkliniken GmbH, Gemeinnützige Gesellschaft Standort Grimma",Grimma,Kleiststraße 5,04668,219,69,32,261400563,772622000,51.2374769,12.7186098
540,"Muldentalkliniken GmbH, Gemeinnützige Gesellschaft Standort Wurzen",Wurzen,Kutusowstraße 70,04808,336,125,37,261400563,772623000,51.3788364,12.7322729
541,Kreiskrankenhaus Weißwasser gGmbH,Weißwasser,Karl-Liebknecht-Str. 1,02943,69,35,51,261400610,772890000,51.5027422,14.6311049
542,Lausitzer Seenland Klinikum GmbH,Hoyerswerda,Maria-Grollmuß-Straße 10,02977,518,114,22,261400621,773221000,51.4420507,14.2724085
543,"ELBLANDKLINIKEN Stiftung & Co. KG, ELBLANDKLINIKUM Riesa",Riesa,Weinbergstraße 8,01589,424,95,22,261400687,771429000,51.2959917,13.3104542
544,Klinikum Oberlausitzer Bergland gemeinnützige GmbH,Zittau,Görlitzer Straße 8,02763,284,100,35,261400723,772442000,50.8992819,14.8197989
545,Klinikum Oberlausitzer Bergland gemeinnützige GmbH,Ebersbach-Neugersdorf,Röntgenstraße 23,02730,269,67,25,261400723,772443000,51.0049872,14.5694573
546,Erzgebirgsklinikum gGmbH - Haus Annaberg,Annaberg-Buchholz,Chemnitzer Straße 15,09456,361,112,31,261400790,771961000,50.592103,13.0067172
547,Erzgebirgsklinikum gGmbH Haus Zschopau,Zschopau,Alte Marienberger Str. 52,09405,339,81,24,261400814,772266000,50.7352235,13.0791184
548,Helios Klinikum Pirna,Pirna,Struppener Straße 13,01796,475,99,21,261400892,771818000,50.9583827,13.9540004
549,Städtisches Klinikum Dresden - Standort Neustadt/Trachau,Dresden,Industriestrasse 40,01129,1200,258,22,261400949,772841000,51.0909968,13.7097782
550,Kreiskrankenhaus Freiberg,Freiberg,Donatsring 20,09599,513,151,29,261400972,772957000,50.9206902,13.3516027
551,"Helios Weißeritztal Kliniken, Klinikum Freital",Freital,Bürgerstraße 7,01705,281,60,21,261401018,771986000,50.9917887,13.6452408
552,"Universitätsklinikum Carl Gustav Carus Dresden an der Technischen Universität Dresden, Anstalt des öffentlichen Rechts des Freistaates Sachsen",Dresden,Fetscherstraße 74,01307,2169,675,31,261401030,773444000,51.0565463,13.7825911
553,Oberlausitz-Kliniken gGmbH/ Krankenhaus Bautzen,Bautzen,Am Stadtwall 3,02625,608,175,29,261401041,771695000,51.1845616,14.4320559
554,Universitätsklinikum Leipzig Anstalt öffentlichen Rechts,Leipzig,Liebigstraße 18,04103,2147,617,29,261401052,771392000,51.3313102,12.384855
555,Sana Kliniken Leipziger Land GmbH - Klinikum Borna,Borna,Rudolf-Virchow-Straße 2,04552,809,203,25,261401063,771016000,51.1346458,12.505405
556,St. Elisabeth-Krankenhaus Leipzig,Leipzig,Biedermannstraße 84,04277,1977,411,21,261401212,771805000,51.3030458,12.3788189
557,Städtisches Klinikum Görlitz gGmbH,Görlitz,Girbigsdorfer Straße 1-3,02828,567,152,27,261401267,772378000,51.1622911,14.9702723
558,Helios Klinikum Aue,Aue,Gartenstraße  6,08280,498,144,29,261401381,773446000,50.5917832,12.7175633
559,Klinikum Chemnitz gGmbH,Chemnitz,Flemmingstraße 2,09116,1257,348,28,261401416,772794000,50.8447689,12.8861281
560,Kliniken Erlabrunn GmbH,Breitenbrunn,Am Märzenberg 1 ,08359,201,66,33,261410020,771591000,50.4739508,12.7112792
561,KH Mittweida,Mittweida,Hainichener Straße 4-6,09648,465,92,20,261410155,772815000,50.9809601,12.9845112
562,Deutsches Rotes Kreuz Krankenhaus Chemnitz-Rabenstein,Chemnitz,Unritzstraße 23,09117,1513,336,22,261410166,771039000,50.8205525,12.8263317
563,Helios Vogtland-Klinikum Plauen,Plauen,Röntgenstraße 2,08529,781,256,33,261410315,771537000,50.4910978,12.1546854
564,"ELBLANDKLINIKEN Stiftung & Co. KG, ELBLANDKLINIKUM Meißen",Meißen,Nassauweg 7,01662,435,117,27,261420055,771831000,51.1732859,13.5062254
565,Kreiskrankenhaus Johann Kentmann gGmbH,Torgau,Christianistraße 1,04860,325,85,26,261430013,771248000,51.5615181,12.9843482
566,HELIOS Klinik Schkeuditz GmbH,Schkeuditz,Leipziger Straße  45,04435,238,88,37,261430024,771525000,51.3943344,12.230264
567,Kreiskrankenhaus Delitszch GmbH,Eilenburg,Wilhelm-Grune-Straße 5-8,04838,261,50,19,261470034,771664000,51.4604669,12.6211978
568,Johanniter GmbH - Zweigniederlassung Stendal - Johanniter Krankenhaus Stendal,Stendal,Wendstraße  31,39576,687,220,32,261500030,773125000,52.611217,11.8542122
569,Universitätsklinikum Magdeburg A.ö.R. - Standort: Gerhart-Hauptmann-Straße ,Magdeburg ,Gerhart-Hauptmann-Straße  35,39108,1117,368,33,261500289,773666000,52.1294618,11.6177367
570,Altmark Klinikum Gardelegen,Gardelegen,Ernst-von-Bergmann-Straße 22,39638,146,52,36,261500290,773354000,52.5223838,11.381898
571,Altmark Klinikum Salzwedel,Salzwedel,Brunnenstraße 1,29410,392,90,23,261500290,773355000,52.8561189,11.1453114
572,AMEOS Klinikum Aschersleben,Aschersleben,Eislebener Str. 7,06449,349,139,40,261500358,772968000,51.7462195,11.4579276
573,SRH Klinikum Klinikum Naumburg,Naumburg,Humboldtstraße 31,06618,296,87,29,261500416,773081000,51.1610137,11.8149587
574,SRH Klinikum Zeitz,Zeitz,Lindenallee 1,06712,84,17,20,261500416,773082000,51.0308713,12.1593125
575,Carl-von-Basedow-Klinikum Saalekreis gGmbH,Merseburg,Weiße Mauer  52,06217,708,262,37,261500461,772911000,51.3663738,11.9938967
576,Helios Klinik Köthen GmbH,Köthen,Hallesche Straße 29,06366,387,100,26,261500586,773269000,51.7467898,11.9727226
577,KLINIKUM MAGDEBURG gemeinnützige GmbH,Magdeburg,Birkenallee 34,39130,1256,384,31,261500597,773244000,52.1586493,11.5794531
578,Paul Gerhardt Diakonie Krankenhaus und Pflege GmbH,Lutherstadt Wittenberg,Paul-Gerhardt-Straße 42-45,06886,530,167,32,261500611,773668000,51.8703045,12.6567485
579,Krankenhaus St. Elisabeth und St. Barbara Halle (Saale) GmbH / St. Elisabeth - Mauerstraße,Halle,Mauerstraße 5,06110,1656,471,28,261500677,772512000,51.4774685,11.968023
580,Universitätsklinikum Halle (Saale),Halle,Ernst-Grube-Straße 40,06120,1176,415,35,261500702,773513000,51.5019795,11.9366516
581,Helios Klinik Jerichower Land,Burg,August-Bebel-Straße 55,39288,629,258,41,261500735,772243000,52.2660431,11.833949
582,Städtisches Klinikum Dessau,Dessau-Roßlau,Auenweg 38,06847,798,314,39,261500757,771701000,51.8159148,12.1976598
583,HELIOS Klinik Sangerhausen,Sangerhausen,Am Beinschuh 2,06526,554,166,30,261500882,771960000,51.4731979,11.3100727
584,"Harzklinikum Dorothea Christiane Erxleben, Standort Wernigerode",Wernigerode,Ilsenburger Straße 15,38855,896,341,38,261500984,771012000,51.8356769,10.7762577
585,Krankenhaus St. Marienstift Magdeburg GmbH,Magdeburg,Harsdorfer Straße 30,39110,829,196,24,261530183,773310000,52.1371517,11.6005955
586,AMEOS Klinikum Halberstadt,Halberstadt,Gleimstraße 5,38820,414,145,35,261530252,773419000,51.9013165,11.0543212
587,Klinikum Bad Salzungen GmbH,Bad Salzungen,Lindigallee 3,36433,354,112,32,261600042,772539000,50.8032602,10.2185891
588,Thüringen-Kliniken &quot;Georgius Agricola&quot; GmbH,Saalfeld,Rainweg 68,07318,681,171,25,261600188,772621000,50.6456452,11.3436957
589,SRH Krankenhaus Waltershausen-Friedrichroda GmbH,Friedrichroda,Reinhardsbrunner Straße 17,99894,311,92,30,261600280,772664000,50.8609247,10.5604609
590,"Katholisches Krankenhaus ""St. Johann Nepomuk"" Erfurt",Erfurt,Haarbergstraße 72,99097,460,127,28,261600337,772251000,50.9477349,11.0842262
591,Robert-Koch-Krankenhaus Apolda GmbH,Apolda,Jenaer Straße 66,99510,534,163,31,261600382,772860000,51.0128361,11.5124558
592,Südharz Klinikum Nordhausen gGmbH,Nordhausen,Dr.-Robert-Koch-Straße 39,99734,533,181,34,261600417,771941000,51.5162705,10.7947784
593,"Hufeland Klinikum GmbH, Standort Mühlhausen",Mühlhausen,Langensalzaer Landstraße 1,99974,580,136,23,261600521,771235000,51.2015306,10.4683
594,SRH Wald-Klinikum Gera GmbH,Gera,Straße des Friedens 122,07548,821,319,39,261600543,773690000,50.8685761,12.0515681
595,Klinikum Altenburger Land GmbH,Altenburg,Am Waldessaum 10,04600,259,64,25,261600623,773479000,50.9723974,12.4410229
596,Universitätsklinikum Jena,Jena,Kastanienstraße 1,07747,1127,375,33,261600736,772874000,50.8862074,11.6158829
597,MEDINOS Kliniken des Landkreises Sonneberg GmbH,Sonneberg,Neustadter Straße  61,96515,188,58,31,261600872,771725000,50.3539322,11.1631209
598,HELIOS Klinikum Meiningen,Meiningen,Bergstraße 3,98617,481,170,35,261600883,771095000,50.5575191,10.3971342
599,Helios Klinikum Gotha,Gotha,Heliosstraße 1,99867,446,125,28,261600894,772368000,50.9284165,10.6776104
600,SRH Zentralklinikum Suhl GmbH,Suhl,Albert-Schweitzer-Straße 2,98527,740,263,36,261600941,773357000,50.6024817,10.7098953
601,Sophien- und Hufeland-Klinikum gGmbH,Weimar,Henry-van-de-Velde-Straße 2,99425,846,231,27,261600952,771939000,50.9603339,11.3222192
602,Eichsfeld Klinikum gGmbH,Heilbad Heiligenstadt,Windische Gasse 112,37308,526,123,23,261601010,772741000,51.3763561,10.1410363
603,HELIOS Klinikum Erfurt,Erfurt,Nordhäuser Straße 74,99089,1380,427,31,261601021,771835000,50.9923519,11.0124195
604,St. Georg Klinikum Eisenach gemeinnützige GmbH,Eisenach,Mühlhäuser Straße 94-95,99817,544,167,31,261601123,772308000,50.9892638,10.3168812
605,KMG Klinikum Sömmerda,Sömmerda,Bahnhofstraße 36,99610,49,9,18,261601145,773338000,51.1622289,11.1218524
606,KMG Klinikum Sondershausen,Sondershausen,Hospitalstraße 2,99706,248,68,27,261601145,773340000,51.3736344,10.8790771
607,Ilm-Kreis-Kliniken Arnstadt-Ilmenau gGmbH,Arnstadt,Bärwinkelstraße 33,99310,611,178,29,261601203,773594000,50.8393775,10.9413536
